{
"type": "FeatureCollection",
"name": "earthquakes_very_major",
"crs": { "type": "name", "properties": { "name": "urn:ogc:def:crs:OGC:1.3:CRS84" } },
"features": [
{ "type": "Feature", "properties": { "place": "south of the Fiji Islands", "magnitudo": 7.6, "depth": 33.2, "tsunami": 0, "year": 1990, "date": "1990-03-03T12:16:27.960Z", "order": 0 }, "geometry": { "type": "Point", "coordinates": [ 175.163, -22.122 ] } },
{ "type": "Feature", "properties": { "place": "69 km SSW of Port-Vila, Vanuatu", "magnitudo": 7.1, "depth": 20.7, "tsunami": 0, "year": 1990, "date": "1990-03-05T16:38:12.570Z", "order": 1 }, "geometry": { "type": "Point", "coordinates": [ 168.063, -18.318 ] } },
{ "type": "Feature", "properties": { "place": "7 km SSE of Puntarenas, Costa Rica", "magnitudo": 7.3, "depth": 22.2, "tsunami": 0, "year": 1990, "date": "1990-03-25T13:22:55.600Z", "order": 2 }, "geometry": { "type": "Point", "coordinates": [ -84.808, 9.919 ] } },
{ "type": "Feature", "properties": { "place": "198 km E of Saipan, Northern Mariana Islands", "magnitudo": 7.6, "depth": 11.4, "tsunami": 0, "year": 1990, "date": "1990-04-05T21:12:35.550Z", "order": 3 }, "geometry": { "type": "Point", "coordinates": [ 147.596, 15.125 ] } },
{ "type": "Feature", "properties": { "place": "75 km NNW of Gorontalo, Indonesia", "magnitudo": 7.8, "depth": 25.7, "tsunami": 0, "year": 1990, "date": "1990-04-18T13:39:19.010Z", "order": 4 }, "geometry": { "type": "Point", "coordinates": [ 122.857, 1.186 ] } },
{ "type": "Feature", "properties": { "place": "16 km WSW of Uglegorsk, Russia", "magnitudo": 7.2, "depth": 605.7, "tsunami": 0, "year": 1990, "date": "1990-05-12T04:50:08.710Z", "order": 5 }, "geometry": { "type": "Point", "coordinates": [ 141.847, 49.037 ] } },
{ "type": "Feature", "properties": { "place": "69 km ENE of Juba, South Sudan", "magnitudo": 7.2, "depth": 14.9, "tsunami": 0, "year": 1990, "date": "1990-05-20T02:22:01.620Z", "order": 6 }, "geometry": { "type": "Point", "coordinates": [ 32.145, 5.121 ] } },
{ "type": "Feature", "properties": { "place": "63 km NNE of Juba, South Sudan", "magnitudo": 7.1, "depth": 16.0, "tsunami": 0, "year": 1990, "date": "1990-05-24T20:00:08.190Z", "order": 7 }, "geometry": { "type": "Point", "coordinates": [ 31.848, 5.358 ] } },
{ "type": "Feature", "properties": { "place": "135 km NNE of Labuan Bajo, Indonesia", "magnitudo": 7.1, "depth": 588.9, "tsunami": 0, "year": 1990, "date": "1990-05-24T20:09:23.240Z", "order": 8 }, "geometry": { "type": "Point", "coordinates": [ 120.363, -7.363 ] } },
{ "type": "Feature", "properties": { "place": "5 km W of Nistore?ti, Romania", "magnitudo": 7.0, "depth": 89.3, "tsunami": 0, "year": 1990, "date": "1990-05-30T10:40:06.140Z", "order": 9 }, "geometry": { "type": "Point", "coordinates": [ 26.668, 45.841 ] } },
{ "type": "Feature", "properties": { "place": "0 km ESE of Union, Philippines", "magnitudo": 7.1, "depth": 18.1, "tsunami": 0, "year": 1990, "date": "1990-06-14T07:40:56.210Z", "order": 10 }, "geometry": { "type": "Point", "coordinates": [ 121.899, 11.76 ] } },
{ "type": "Feature", "properties": { "place": "23 km N of P?deg?n-e Manj?l, Iran", "magnitudo": 7.4, "depth": 18.5, "tsunami": 0, "year": 1990, "date": "1990-06-20T21:00:09.980Z", "order": 11 }, "geometry": { "type": "Point", "coordinates": [ 49.409, 36.957 ] } },
{ "type": "Feature", "properties": { "place": "4 km E of Macapsing, Philippines", "magnitudo": 7.7, "depth": 25.1, "tsunami": 0, "year": 1990, "date": "1990-07-16T07:26:34.610Z", "order": 12 }, "geometry": { "type": "Point", "coordinates": [ 121.172, 15.679 ] } },
{ "type": "Feature", "properties": { "place": "37 km ENE of Luganville, Vanuatu", "magnitudo": 7.2, "depth": 125.7, "tsunami": 0, "year": 1990, "date": "1990-07-27T12:37:59.550Z", "order": 13 }, "geometry": { "type": "Point", "coordinates": [ 167.464, -15.355 ] } },
{ "type": "Feature", "properties": { "place": "19 km NW of Isangel, Vanuatu", "magnitudo": 7.1, "depth": 140.4, "tsunami": 0, "year": 1990, "date": "1990-08-12T21:25:21.950Z", "order": 14 }, "geometry": { "type": "Point", "coordinates": [ 169.132, -19.435 ] } },
{ "type": "Feature", "properties": { "place": "130 km W of Iñapari, Peru", "magnitudo": 7.0, "depth": 598.8, "tsunami": 0, "year": 1990, "date": "1990-10-17T14:30:13.160Z", "order": 15 }, "geometry": { "type": "Point", "coordinates": [ -70.776, -10.97 ] } },
{ "type": "Feature", "properties": { "place": "231 km WNW of Attu Station, Alaska", "magnitudo": 7.1, "depth": 24.8, "tsunami": 0, "year": 1990, "date": "1990-11-06T20:14:29.740Z", "order": 16 }, "geometry": { "type": "Point", "coordinates": [ 169.871, 53.452 ] } },
{ "type": "Feature", "properties": { "place": "104 km ENE of Kimbe, Papua New Guinea", "magnitudo": 7.5, "depth": 178.6, "tsunami": 0, "year": 1990, "date": "1990-12-30T19:14:18.930Z", "order": 17 }, "geometry": { "type": "Point", "coordinates": [ 150.967, -5.097 ] } },
{ "type": "Feature", "properties": { "place": "99 km NW of Mogok, Myanmar", "magnitudo": 7.0, "depth": 19.7, "tsunami": 0, "year": 1991, "date": "1991-01-05T14:57:11.590Z", "order": 18 }, "geometry": { "type": "Point", "coordinates": [ 95.901, 23.613 ] } },
{ "type": "Feature", "properties": { "place": "18 km E of Aras-asan, Philippines", "magnitudo": 7.0, "depth": 23.9, "tsunami": 0, "year": 1991, "date": "1991-02-18T02:37:25.120Z", "order": 19 }, "geometry": { "type": "Point", "coordinates": [ 126.48, 8.87 ] } },
{ "type": "Feature", "properties": { "place": "11 km NE of Rioja, Peru", "magnitudo": 7.1, "depth": 19.8, "tsunami": 0, "year": 1991, "date": "1991-04-05T04:19:49.520Z", "order": 20 }, "geometry": { "type": "Point", "coordinates": [ -77.094, -5.982 ] } },
{ "type": "Feature", "properties": { "place": "34 km S of Limón, Costa Rica", "magnitudo": 7.6, "depth": 10.0, "tsunami": 0, "year": 1991, "date": "1991-04-22T21:56:51.820Z", "order": 21 }, "geometry": { "type": "Point", "coordinates": [ -83.073, 9.685 ] } },
{ "type": "Feature", "properties": { "place": "22 km WNW of Java, Georgia", "magnitudo": 7.0, "depth": 17.2, "tsunami": 0, "year": 1991, "date": "1991-04-29T09:12:48.100Z", "order": 22 }, "geometry": { "type": "Point", "coordinates": [ 43.673, 42.453 ] } },
{ "type": "Feature", "properties": { "place": "69 km N of Gorontalo, Indonesia", "magnitudo": 7.0, "depth": 33.0, "tsunami": 0, "year": 1991, "date": "1991-05-19T00:58:01.730Z", "order": 23 }, "geometry": { "type": "Point", "coordinates": [ 122.957, 1.156 ] } },
{ "type": "Feature", "properties": { "place": "71 km SE of King Cove, Alaska", "magnitudo": 7.0, "depth": 28.4, "tsunami": 0, "year": 1991, "date": "1991-05-30T13:17:41.970Z", "order": 24 }, "geometry": { "type": "Point", "coordinates": [ -161.606, 54.567 ] } },
{ "type": "Feature", "properties": { "place": "144 km NW of Nuku‘alofa, Tonga", "magnitudo": 7.0, "depth": 265.5, "tsunami": 0, "year": 1991, "date": "1991-06-09T07:45:02.130Z", "order": 25 }, "geometry": { "type": "Point", "coordinates": [ -176.218, -20.252 ] } },
{ "type": "Feature", "properties": { "place": "79 km NNW of Gorontalo, Indonesia", "magnitudo": 7.5, "depth": 31.4, "tsunami": 0, "year": 1991, "date": "1991-06-20T05:18:52.510Z", "order": 26 }, "geometry": { "type": "Point", "coordinates": [ 122.787, 1.196 ] } },
{ "type": "Feature", "properties": { "place": "27 km NNW of El Hoyo, Argentina", "magnitudo": 7.3, "depth": 558.0, "tsunami": 0, "year": 1991, "date": "1991-06-23T21:22:28.940Z", "order": 27 }, "geometry": { "type": "Point", "coordinates": [ -63.349, -26.802 ] } },
{ "type": "Feature", "properties": { "place": "15 km W of Lares, Peru", "magnitudo": 7.0, "depth": 104.5, "tsunami": 0, "year": 1991, "date": "1991-07-06T12:19:49.560Z", "order": 28 }, "geometry": { "type": "Point", "coordinates": [ -72.187, -13.108 ] } },
{ "type": "Feature", "properties": { "place": "136 km WSW of Brookings, Oregon", "magnitudo": 7.0, "depth": 1.303, "tsunami": 0, "year": 1991, "date": "1991-08-17T22:17:09.970Z", "order": 29 }, "geometry": { "type": "Point", "coordinates": [ -125.856, 41.679 ] } },
{ "type": "Feature", "properties": { "place": "Fiji region", "magnitudo": 7.0, "depth": 566.4, "tsunami": 0, "year": 1991, "date": "1991-09-30T00:21:46.410Z", "order": 30 }, "geometry": { "type": "Point", "coordinates": [ -178.591, -20.878 ] } },
{ "type": "Feature", "properties": { "place": "155 km WNW of Malango, Solomon Islands", "magnitudo": 7.2, "depth": 23.4, "tsunami": 0, "year": 1991, "date": "1991-10-14T15:58:12.790Z", "order": 31 }, "geometry": { "type": "Point", "coordinates": [ 158.442, -9.094 ] } },
{ "type": "Feature", "properties": { "place": "33 km NNW of Santa Genoveva de Docordó, Colombia", "magnitudo": 7.2, "depth": 21.3, "tsunami": 0, "year": 1991, "date": "1991-11-19T22:28:51.090Z", "order": 32 }, "geometry": { "type": "Point", "coordinates": [ -77.442, 4.554 ] } },
{ "type": "Feature", "properties": { "place": "248 km E of Kuril’sk, Russia", "magnitudo": 7.6, "depth": 24.7, "tsunami": 0, "year": 1991, "date": "1991-12-22T08:43:13.410Z", "order": 33 }, "geometry": { "type": "Point", "coordinates": [ 151.021, 45.533 ] } },
{ "type": "Feature", "properties": { "place": "South Sandwich Islands region", "magnitudo": 7.2, "depth": 10.0, "tsunami": 0, "year": 1991, "date": "1991-12-27T04:05:58.240Z", "order": 34 }, "geometry": { "type": "Point", "coordinates": [ -25.266, -56.032 ] } },
{ "type": "Feature", "properties": { "place": "19 km SSW of Scotia, California", "magnitudo": 7.2, "depth": 9.856, "tsunami": 0, "year": 1992, "date": "1992-04-25T18:06:05.180Z", "order": 35 }, "geometry": { "type": "Point", "coordinates": [ -124.2286667, 40.3353333 ] } },
{ "type": "Feature", "properties": { "place": "61 km NNW of Finschhafen, Papua New Guinea", "magnitudo": 7.2, "depth": 58.0, "tsunami": 0, "year": 1992, "date": "1992-05-15T07:05:05.340Z", "order": 36 }, "geometry": { "type": "Point", "coordinates": [ 147.572, -6.075 ] } },
{ "type": "Feature", "properties": { "place": "9 km SE of Santiago, Philippines", "magnitudo": 7.1, "depth": 32.8, "tsunami": 0, "year": 1992, "date": "1992-05-17T09:49:19.110Z", "order": 37 }, "geometry": { "type": "Point", "coordinates": [ 126.645, 7.239 ] } },
{ "type": "Feature", "properties": { "place": "23 km ESE of Santiago, Philippines", "magnitudo": 7.3, "depth": 33.0, "tsunami": 0, "year": 1992, "date": "1992-05-17T10:15:31.310Z", "order": 38 }, "geometry": { "type": "Point", "coordinates": [ 126.762, 7.191 ] } },
{ "type": "Feature", "properties": { "place": "75 km SW of Lata, Solomon Islands", "magnitudo": 7.0, "depth": 18.8, "tsunami": 0, "year": 1992, "date": "1992-05-27T05:13:38.810Z", "order": 39 }, "geometry": { "type": "Point", "coordinates": [ 165.239, -11.122 ] } },
{ "type": "Feature", "properties": { "place": "The 1992 Landers Earthquake, California", "magnitudo": 7.3, "depth": -0.097, "tsunami": 0, "year": 1992, "date": "1992-06-28T11:57:34.130Z", "order": 40 }, "geometry": { "type": "Point", "coordinates": [ -116.437, 34.2 ] } },
{ "type": "Feature", "properties": { "place": "south of the Fiji Islands", "magnitudo": 7.2, "depth": 377.2, "tsunami": 0, "year": 1992, "date": "1992-07-11T10:44:19.760Z", "order": 41 }, "geometry": { "type": "Point", "coordinates": [ -178.413, -22.483 ] } },
{ "type": "Feature", "properties": { "place": "60 km ENE of Toktogul, Kyrgyzstan", "magnitudo": 7.3, "depth": 27.4, "tsunami": 0, "year": 1992, "date": "1992-08-19T02:04:37.410Z", "order": 42 }, "geometry": { "type": "Point", "coordinates": [ 73.575, 42.142 ] } },
{ "type": "Feature", "properties": { "place": "83 km SSW of Corinto, Nicaragua", "magnitudo": 7.7, "depth": 44.8, "tsunami": 0, "year": 1992, "date": "1992-09-02T00:16:01.690Z", "order": 43 }, "geometry": { "type": "Point", "coordinates": [ -87.34, 11.742 ] } },
{ "type": "Feature", "properties": { "place": "47 km NW of Isangel, Vanuatu", "magnitudo": 7.4, "depth": 129.0, "tsunami": 0, "year": 1992, "date": "1992-10-11T19:24:26.290Z", "order": 44 }, "geometry": { "type": "Point", "coordinates": [ 168.948, -19.247 ] } },
{ "type": "Feature", "properties": { "place": "11 km NNW of Murindó, Colombia", "magnitudo": 7.2, "depth": 10.0, "tsunami": 0, "year": 1992, "date": "1992-10-18T15:11:59.110Z", "order": 45 }, "geometry": { "type": "Point", "coordinates": [ -76.862, 7.075 ] } },
{ "type": "Feature", "properties": { "place": "37 km WNW of Maumere, Indonesia", "magnitudo": 7.8, "depth": 27.7, "tsunami": 0, "year": 1992, "date": "1992-12-12T05:29:26.350Z", "order": 46 }, "geometry": { "type": "Point", "coordinates": [ 121.896, -8.48 ] } },
{ "type": "Feature", "properties": { "place": "281 km WSW of Tual, Indonesia", "magnitudo": 7.3, "depth": 77.7, "tsunami": 0, "year": 1992, "date": "1992-12-20T20:52:47.280Z", "order": 47 }, "geometry": { "type": "Point", "coordinates": [ 130.393, -6.582 ] } },
{ "type": "Feature", "properties": { "place": "52 km NE of Otofuke, Japan", "magnitudo": 7.6, "depth": 102.2, "tsunami": 0, "year": 1993, "date": "1993-01-15T11:06:05.950Z", "order": 48 }, "geometry": { "type": "Point", "coordinates": [ 143.691, 43.3 ] } },
{ "type": "Feature", "properties": { "place": "178 km W of Lata, Solomon Islands", "magnitudo": 7.1, "depth": 20.4, "tsunami": 0, "year": 1993, "date": "1993-03-06T03:05:49.870Z", "order": 49 }, "geometry": { "type": "Point", "coordinates": [ 164.181, -10.972 ] } },
{ "type": "Feature", "properties": { "place": "3 km E of Manay, Philippines", "magnitudo": 7.0, "depth": 58.7, "tsunami": 0, "year": 1993, "date": "1993-05-11T18:26:51.320Z", "order": 50 }, "geometry": { "type": "Point", "coordinates": [ 126.57, 7.219 ] } },
{ "type": "Feature", "properties": { "place": "87 km W of Abra Pampa, Argentina", "magnitudo": 7.0, "depth": 221.0, "tsunami": 0, "year": 1993, "date": "1993-05-24T23:51:28.240Z", "order": 51 }, "geometry": { "type": "Point", "coordinates": [ -66.543, -22.671 ] } },
{ "type": "Feature", "properties": { "place": "97 km ESE of Ozernovskiy, Russia", "magnitudo": 7.5, "depth": 70.6, "tsunami": 0, "year": 1993, "date": "1993-06-08T13:03:36.480Z", "order": 52 }, "geometry": { "type": "Point", "coordinates": [ 157.829, 51.218 ] } },
{ "type": "Feature", "properties": { "place": "107 km W of Iwanai, Japan", "magnitudo": 7.7, "depth": 16.7, "tsunami": 0, "year": 1993, "date": "1993-07-12T13:17:11.960Z", "order": 53 }, "geometry": { "type": "Point", "coordinates": [ 139.197, 42.851 ] } },
{ "type": "Feature", "properties": { "place": "32 km S of Inarajan Village, Guam", "magnitudo": 7.8, "depth": 59.3, "tsunami": 0, "year": 1993, "date": "1993-08-08T08:34:24.930Z", "order": 54 }, "geometry": { "type": "Point", "coordinates": [ 144.801, 12.982 ] } },
{ "type": "Feature", "properties": { "place": "53 km S of Jurm, Afghanistan", "magnitudo": 7.0, "depth": 214.5, "tsunami": 0, "year": 1993, "date": "1993-08-09T12:42:48.190Z", "order": 55 }, "geometry": { "type": "Point", "coordinates": [ 70.868, 36.379 ] } },
{ "type": "Feature", "properties": { "place": "63 km WNW of Te Anau, New Zealand", "magnitudo": 7.0, "depth": 28.1, "tsunami": 0, "year": 1993, "date": "1993-08-10T00:51:53.250Z", "order": 56 }, "geometry": { "type": "Point", "coordinates": [ 166.927, -45.277 ] } },
{ "type": "Feature", "properties": { "place": "24 km W of Puerto Madero, Mexico", "magnitudo": 7.2, "depth": 34.1, "tsunami": 0, "year": 1993, "date": "1993-09-10T19:12:54.620Z", "order": 57 }, "geometry": { "type": "Point", "coordinates": [ -92.645, 14.717 ] } },
{ "type": "Feature", "properties": { "place": "112 km S of Vilyuchinsk, Russia", "magnitudo": 7.0, "depth": 34.0, "tsunami": 0, "year": 1993, "date": "1993-11-13T01:18:04.180Z", "order": 58 }, "geometry": { "type": "Point", "coordinates": [ 158.647, 51.934 ] } },
{ "type": "Feature", "properties": { "place": "92 km SE of Isangel, Vanuatu", "magnitudo": 7.0, "depth": 33.0, "tsunami": 0, "year": 1993, "date": "1993-12-29T07:48:14.200Z", "order": 59 }, "geometry": { "type": "Point", "coordinates": [ 169.789, -20.23 ] } },
{ "type": "Feature", "properties": { "place": "36 km NNE of Sofifi, Indonesia", "magnitudo": 7.0, "depth": 19.9, "tsunami": 0, "year": 1994, "date": "1994-01-21T02:24:29.960Z", "order": 60 }, "geometry": { "type": "Point", "coordinates": [ 127.733, 1.015 ] } },
{ "type": "Feature", "properties": { "place": "112 km S of Isangel, Vanuatu", "magnitudo": 7.0, "depth": 27.7, "tsunami": 0, "year": 1994, "date": "1994-02-12T17:58:23.990Z", "order": 61 }, "geometry": { "type": "Point", "coordinates": [ 169.361, -20.553 ] } },
{ "type": "Feature", "properties": { "place": "240 km E of Levuka, Fiji", "magnitudo": 7.6, "depth": 562.5, "tsunami": 0, "year": 1994, "date": "1994-03-09T23:28:06.780Z", "order": 62 }, "geometry": { "type": "Point", "coordinates": [ -178.413, -18.039 ] } },
{ "type": "Feature", "properties": { "place": "central Mid-Atlantic Ridge", "magnitudo": 7.0, "depth": 10.0, "tsunami": 0, "year": 1994, "date": "1994-03-14T04:30:15.750Z", "order": 63 }, "geometry": { "type": "Point", "coordinates": [ -23.569, -1.278 ] } },
{ "type": "Feature", "properties": { "place": "249 km SSW of Kencong, Indonesia", "magnitudo": 7.8, "depth": 18.4, "tsunami": 0, "year": 1994, "date": "1994-06-02T18:17:34.020Z", "order": 64 }, "geometry": { "type": "Point", "coordinates": [ 112.835, -10.477 ] } },
{ "type": "Feature", "properties": { "place": "55 km NNW of Reyes, Bolivia", "magnitudo": 8.2, "depth": 631.3, "tsunami": 0, "year": 1994, "date": "1994-06-09T00:33:16.230Z", "order": 65 }, "geometry": { "type": "Point", "coordinates": [ -67.553, -13.841 ] } },
{ "type": "Feature", "properties": { "place": "58 km S of Lakatoro, Vanuatu", "magnitudo": 7.2, "depth": 33.0, "tsunami": 0, "year": 1994, "date": "1994-07-13T02:35:56.020Z", "order": 66 }, "geometry": { "type": "Point", "coordinates": [ 167.518, -16.62 ] } },
{ "type": "Feature", "properties": { "place": "46 km SSW of Vrangel’, Russia", "magnitudo": 7.3, "depth": 471.4, "tsunami": 0, "year": 1994, "date": "1994-07-21T18:36:31.740Z", "order": 67 }, "geometry": { "type": "Point", "coordinates": [ 132.865, 42.34 ] } },
{ "type": "Feature", "properties": { "place": "121 km W of Ferndale, California", "magnitudo": 7.1, "depth": 10.0, "tsunami": 0, "year": 1994, "date": "1994-09-01T15:15:53.080Z", "order": 68 }, "geometry": { "type": "Point", "coordinates": [ -125.68, 40.402 ] } },
{ "type": "Feature", "properties": { "place": "48 km E of Shikotan, Russia", "magnitudo": 8.3, "depth": 14.0, "tsunami": 0, "year": 1994, "date": "1994-10-04T13:22:55.840Z", "order": 69 }, "geometry": { "type": "Point", "coordinates": [ 147.321, 43.773 ] } },
{ "type": "Feature", "properties": { "place": "96 km E of Shikotan, Russia", "magnitudo": 7.3, "depth": 33.0, "tsunami": 0, "year": 1994, "date": "1994-10-09T07:55:39.580Z", "order": 70 }, "geometry": { "type": "Point", "coordinates": [ 147.916, 43.905 ] } },
{ "type": "Feature", "properties": { "place": "10 km E of Sabang, Philippines", "magnitudo": 7.1, "depth": 31.5, "tsunami": 0, "year": 1994, "date": "1994-11-14T19:15:30.660Z", "order": 71 }, "geometry": { "type": "Point", "coordinates": [ 121.067, 13.525 ] } },
{ "type": "Feature", "properties": { "place": "off the east coast of Honshu, Japan", "magnitudo": 7.8, "depth": 26.5, "tsunami": 0, "year": 1994, "date": "1994-12-28T12:19:23.030Z", "order": 72 }, "geometry": { "type": "Point", "coordinates": [ 143.419, 40.525 ] } },
{ "type": "Feature", "properties": { "place": "63 km ESE of Hachinohe, Japan", "magnitudo": 7.0, "depth": 26.9, "tsunami": 0, "year": 1995, "date": "1995-01-06T22:37:34.320Z", "order": 73 }, "geometry": { "type": "Point", "coordinates": [ 142.175, 40.246 ] } },
{ "type": "Feature", "properties": { "place": "118 km NNE of Gisborne, New Zealand", "magnitudo": 7.1, "depth": 21.1, "tsunami": 0, "year": 1995, "date": "1995-02-05T22:51:05.140Z", "order": 74 }, "geometry": { "type": "Point", "coordinates": [ 178.752, -37.759 ] } },
{ "type": "Feature", "properties": { "place": "88 km NNE of Hihifo, Tonga", "magnitudo": 7.4, "depth": 21.2, "tsunami": 0, "year": 1995, "date": "1995-04-07T22:06:56.890Z", "order": 75 }, "geometry": { "type": "Point", "coordinates": [ -173.529, -15.199 ] } },
{ "type": "Feature", "properties": { "place": "10 km E of Dapdap, Philippines", "magnitudo": 7.2, "depth": 20.7, "tsunami": 0, "year": 1995, "date": "1995-04-21T00:34:46.090Z", "order": 76 }, "geometry": { "type": "Point", "coordinates": [ 125.58, 12.059 ] } },
{ "type": "Feature", "properties": { "place": "14 km NE of Cabatuan, Philippines", "magnitudo": 7.1, "depth": 16.0, "tsunami": 0, "year": 1995, "date": "1995-05-05T03:53:45.050Z", "order": 77 }, "geometry": { "type": "Point", "coordinates": [ 125.297, 12.626 ] } },
{ "type": "Feature", "properties": { "place": "249 km E of Vao, New Caledonia", "magnitudo": 7.7, "depth": 20.2, "tsunami": 0, "year": 1995, "date": "1995-05-16T20:12:44.220Z", "order": 78 }, "geometry": { "type": "Point", "coordinates": [ 169.9, -23.008 ] } },
{ "type": "Feature", "properties": { "place": "85 km S of Tungor, Russia", "magnitudo": 7.1, "depth": 11.0, "tsunami": 0, "year": 1995, "date": "1995-05-27T13:03:52.650Z", "order": 79 }, "geometry": { "type": "Point", "coordinates": [ 142.827, 52.629 ] } },
{ "type": "Feature", "properties": { "place": "Kermadec Islands, New Zealand", "magnitudo": 7.2, "depth": 35.3, "tsunami": 0, "year": 1995, "date": "1995-07-03T19:50:50.620Z", "order": 80 }, "geometry": { "type": "Point", "coordinates": [ -177.589, -29.211 ] } },
{ "type": "Feature", "properties": { "place": "36 km NNE of Antofagasta, Chile", "magnitudo": 8.0, "depth": 45.6, "tsunami": 0, "year": 1995, "date": "1995-07-30T05:11:23.630Z", "order": 81 }, "geometry": { "type": "Point", "coordinates": [ -70.294, -23.34 ] } },
{ "type": "Feature", "properties": { "place": "155 km WNW of Panguna, Papua New Guinea", "magnitudo": 7.7, "depth": 30.1, "tsunami": 0, "year": 1995, "date": "1995-08-16T10:27:28.630Z", "order": 82 }, "geometry": { "type": "Point", "coordinates": [ 154.178, -5.799 ] } },
{ "type": "Feature", "properties": { "place": "139 km WNW of Panguna, Papua New Guinea", "magnitudo": 7.2, "depth": 33.0, "tsunami": 0, "year": 1995, "date": "1995-08-16T23:10:23.980Z", "order": 83 }, "geometry": { "type": "Point", "coordinates": [ 154.347, -5.771 ] } },
{ "type": "Feature", "properties": { "place": "Pagan region, Northern Mariana Islands", "magnitudo": 7.1, "depth": 594.9, "tsunami": 0, "year": 1995, "date": "1995-08-23T07:06:02.760Z", "order": 84 }, "geometry": { "type": "Point", "coordinates": [ 145.218, 18.856 ] } },
{ "type": "Feature", "properties": { "place": "5 km N of Azoyú, Mexico", "magnitudo": 7.4, "depth": 23.0, "tsunami": 0, "year": 1995, "date": "1995-09-14T14:04:31.430Z", "order": 85 }, "geometry": { "type": "Point", "coordinates": [ -98.597, 16.779 ] } },
{ "type": "Feature", "properties": { "place": "45 km SE of Sucúa, Ecuador", "magnitudo": 7.0, "depth": 24.4, "tsunami": 0, "year": 1995, "date": "1995-10-03T01:51:23.900Z", "order": 86 }, "geometry": { "type": "Point", "coordinates": [ -77.881, -2.75 ] } },
{ "type": "Feature", "properties": { "place": "5 km E of El Colomo, Mexico", "magnitudo": 8.0, "depth": 33.0, "tsunami": 0, "year": 1995, "date": "1995-10-09T15:35:53.910Z", "order": 87 }, "geometry": { "type": "Point", "coordinates": [ -104.205, 19.055 ] } },
{ "type": "Feature", "properties": { "place": "83 km SE of Naze, Japan", "magnitudo": 7.1, "depth": 28.4, "tsunami": 0, "year": 1995, "date": "1995-10-18T10:37:26.380Z", "order": 88 }, "geometry": { "type": "Point", "coordinates": [ 130.175, 27.929 ] } },
{ "type": "Feature", "properties": { "place": "13 km NW of Ocozocoautla de Espinosa, Mexico", "magnitudo": 7.2, "depth": 159.3, "tsunami": 0, "year": 1995, "date": "1995-10-21T02:38:57.120Z", "order": 89 }, "geometry": { "type": "Point", "coordinates": [ -93.469, 16.84 ] } },
{ "type": "Feature", "properties": { "place": "27 km SSE of Nuwaybi‘a, Egypt", "magnitudo": 7.2, "depth": 10.0, "tsunami": 0, "year": 1995, "date": "1995-11-22T04:15:11.940Z", "order": 90 }, "geometry": { "type": "Point", "coordinates": [ 34.799, 28.826 ] } },
{ "type": "Feature", "properties": { "place": "128 km ESE of Kuril’sk, Russia", "magnitudo": 7.9, "depth": 33.0, "tsunami": 0, "year": 1995, "date": "1995-12-03T18:01:08.990Z", "order": 91 }, "geometry": { "type": "Point", "coordinates": [ 149.3, 44.663 ] } },
{ "type": "Feature", "properties": { "place": "297 km NE of Lospalos, Timor Leste", "magnitudo": 7.1, "depth": 141.9, "tsunami": 0, "year": 1995, "date": "1995-12-25T04:43:24.460Z", "order": 92 }, "geometry": { "type": "Point", "coordinates": [ 129.151, -6.903 ] } },
{ "type": "Feature", "properties": { "place": "181 km N of Palu, Indonesia", "magnitudo": 7.9, "depth": 24.0, "tsunami": 0, "year": 1996, "date": "1996-01-01T08:05:10.830Z", "order": 93 }, "geometry": { "type": "Point", "coordinates": [ 119.931, 0.729 ] } },
{ "type": "Feature", "properties": { "place": "158 km E of Kuril’sk, Russia", "magnitudo": 7.2, "depth": 42.6, "tsunami": 0, "year": 1996, "date": "1996-02-07T21:36:46.300Z", "order": 94 }, "geometry": { "type": "Point", "coordinates": [ 149.892, 45.324 ] } },
{ "type": "Feature", "properties": { "place": "101 km ENE of Biak, Indonesia", "magnitudo": 8.09, "depth": 33.0, "tsunami": 0, "year": 1996, "date": "1996-02-17T05:59:30.550Z", "order": 95 }, "geometry": { "type": "Point", "coordinates": [ 136.952, -0.891 ] } },
{ "type": "Feature", "properties": { "place": "123 km WSW of Puerto Santa, Peru", "magnitudo": 7.5, "depth": 10.0, "tsunami": 0, "year": 1996, "date": "1996-02-21T12:51:01.300Z", "order": 96 }, "geometry": { "type": "Point", "coordinates": [ -79.587, -9.593 ] } },
{ "type": "Feature", "properties": { "place": "24 km SSW of Santa María Chico Ometepec, Mexico", "magnitudo": 7.1, "depth": 21.1, "tsunami": 0, "year": 1996, "date": "1996-02-25T03:08:15.870Z", "order": 97 }, "geometry": { "type": "Point", "coordinates": [ -98.07, 15.978 ] } },
{ "type": "Feature", "properties": { "place": "south of the Fiji Islands", "magnitudo": 7.2, "depth": 110.9, "tsunami": 0, "year": 1996, "date": "1996-04-16T00:30:54.670Z", "order": 98 }, "geometry": { "type": "Point", "coordinates": [ -177.036, -24.061 ] } },
{ "type": "Feature", "properties": { "place": "58 km WSW of Panguna, Papua New Guinea", "magnitudo": 7.2, "depth": 44.0, "tsunami": 0, "year": 1996, "date": "1996-04-29T14:40:41.090Z", "order": 99 }, "geometry": { "type": "Point", "coordinates": [ 154.999, -6.518 ] } },
{ "type": "Feature", "properties": { "place": "northern Mid-Atlantic Ridge", "magnitudo": 7.0, "depth": 10.0, "tsunami": 0, "year": 1996, "date": "1996-06-02T02:52:09.550Z", "order": 100 }, "geometry": { "type": "Point", "coordinates": [ -42.254, 10.797 ] } },
{ "type": "Feature", "properties": { "place": "77 km WSW of Adak, Alaska", "magnitudo": 7.9, "depth": 33.0, "tsunami": 0, "year": 1996, "date": "1996-06-10T04:03:35.480Z", "order": 101 }, "geometry": { "type": "Point", "coordinates": [ -177.632, 51.564 ] } },
{ "type": "Feature", "properties": { "place": "46 km SSW of Adak, Alaska", "magnitudo": 7.3, "depth": 26.3, "tsunami": 0, "year": 1996, "date": "1996-06-10T15:24:56Z", "order": 102 }, "geometry": { "type": "Point", "coordinates": [ -176.847, 51.478 ] } },
{ "type": "Feature", "properties": { "place": "8 km NNE of Palapag, Philippines", "magnitudo": 7.1, "depth": 33.0, "tsunami": 0, "year": 1996, "date": "1996-06-11T18:22:55.730Z", "order": 103 }, "geometry": { "type": "Point", "coordinates": [ 125.154, 12.614 ] } },
{ "type": "Feature", "properties": { "place": "169 km NNE of Maumere, Indonesia", "magnitudo": 7.9, "depth": 587.3, "tsunami": 0, "year": 1996, "date": "1996-06-17T11:22:18.540Z", "order": 104 }, "geometry": { "type": "Point", "coordinates": [ 122.589, -7.137 ] } },
{ "type": "Feature", "properties": { "place": "220 km NNE of Palu, Indonesia", "magnitudo": 7.0, "depth": 33.0, "tsunami": 0, "year": 1996, "date": "1996-07-22T14:19:35.770Z", "order": 105 }, "geometry": { "type": "Point", "coordinates": [ 120.45, 1.0 ] } },
{ "type": "Feature", "properties": { "place": "Fiji region", "magnitudo": 7.4, "depth": 550.2, "tsunami": 0, "year": 1996, "date": "1996-08-05T22:38:22.090Z", "order": 106 }, "geometry": { "type": "Point", "coordinates": [ -178.31, -20.69 ] } },
{ "type": "Feature", "properties": { "place": "60 km SW of Changuillo, Peru", "magnitudo": 7.7, "depth": 33.0, "tsunami": 0, "year": 1996, "date": "1996-11-12T16:59:44.030Z", "order": 107 }, "geometry": { "type": "Point", "coordinates": [ -75.675, -14.993 ] } },
{ "type": "Feature", "properties": { "place": "46 km WNW of El Habillal, Mexico", "magnitudo": 7.2, "depth": 33.0, "tsunami": 0, "year": 1997, "date": "1997-01-11T20:28:26.020Z", "order": 108 }, "geometry": { "type": "Point", "coordinates": [ -102.756, 18.219 ] } },
{ "type": "Feature", "properties": { "place": "16 km NW of Villazón, Bolivia", "magnitudo": 7.1, "depth": 276.2, "tsunami": 0, "year": 1997, "date": "1997-01-23T02:15:22.970Z", "order": 109 }, "geometry": { "type": "Point", "coordinates": [ -65.719, -21.999 ] } },
{ "type": "Feature", "properties": { "place": "29 km ESE of Harnai, Pakistan", "magnitudo": 7.1, "depth": 33.0, "tsunami": 0, "year": 1997, "date": "1997-02-27T21:08:02.360Z", "order": 110 }, "geometry": { "type": "Point", "coordinates": [ 68.208, 29.976 ] } },
{ "type": "Feature", "properties": { "place": "171 km NNW of Sola, Vanuatu", "magnitudo": 7.7, "depth": 33.0, "tsunami": 0, "year": 1997, "date": "1997-04-21T12:02:26.430Z", "order": 111 }, "geometry": { "type": "Point", "coordinates": [ 166.676, -12.584 ] } },
{ "type": "Feature", "properties": { "place": "58 km E of Q?’en, Iran", "magnitudo": 7.3, "depth": 10.0, "tsunami": 0, "year": 1997, "date": "1997-05-10T07:57:29.720Z", "order": 112 }, "geometry": { "type": "Point", "coordinates": [ 59.809, 33.825 ] } },
{ "type": "Feature", "properties": { "place": "south of the Kermadec Islands", "magnitudo": 7.1, "depth": 332.7, "tsunami": 0, "year": 1997, "date": "1997-05-25T23:22:33.190Z", "order": 113 }, "geometry": { "type": "Point", "coordinates": [ 179.791, -32.115 ] } },
{ "type": "Feature", "properties": { "place": "26 km WSW of Carúpano, Venezuela", "magnitudo": 7.0, "depth": 19.9, "tsunami": 0, "year": 1997, "date": "1997-07-09T19:24:13.170Z", "order": 114 }, "geometry": { "type": "Point", "coordinates": [ -63.486, 10.598 ] } },
{ "type": "Feature", "properties": { "place": "Kermadec Islands region", "magnitudo": 7.0, "depth": 30.0, "tsunami": 0, "year": 1997, "date": "1997-09-20T16:11:32.150Z", "order": 115 }, "geometry": { "type": "Point", "coordinates": [ -177.624, -28.683 ] } },
{ "type": "Feature", "properties": { "place": "192 km WSW of Haveluloto, Tonga", "magnitudo": 7.8, "depth": 167.3, "tsunami": 0, "year": 1997, "date": "1997-10-14T09:53:18.150Z", "order": 116 }, "geometry": { "type": "Point", "coordinates": [ -176.772, -22.101 ] } },
{ "type": "Feature", "properties": { "place": "36 km SW of Monte Patria, Chile", "magnitudo": 7.1, "depth": 58.0, "tsunami": 0, "year": 1997, "date": "1997-10-15T01:03:33.460Z", "order": 117 }, "geometry": { "type": "Point", "coordinates": [ -71.22, -30.933 ] } },
{ "type": "Feature", "properties": { "place": "51 km N of Barranca, Peru", "magnitudo": 7.2, "depth": 112.0, "tsunami": 0, "year": 1997, "date": "1997-10-28T06:15:17.330Z", "order": 118 }, "geometry": { "type": "Point", "coordinates": [ -76.681, -4.368 ] } },
{ "type": "Feature", "properties": { "place": "western Xizang", "magnitudo": 7.5, "depth": 33.0, "tsunami": 0, "year": 1997, "date": "1997-11-08T10:02:52.610Z", "order": 119 }, "geometry": { "type": "Point", "coordinates": [ 87.325, 35.069 ] } },
{ "type": "Feature", "properties": { "place": "34 km ESE of Port-Olry, Vanuatu", "magnitudo": 7.0, "depth": 123.1, "tsunami": 0, "year": 1997, "date": "1997-11-15T18:59:24.300Z", "order": 120 }, "geometry": { "type": "Point", "coordinates": [ 167.375, -15.145 ] } },
{ "type": "Feature", "properties": { "place": "97 km NW of Gorontalo, Indonesia", "magnitudo": 7.0, "depth": 24.0, "tsunami": 0, "year": 1997, "date": "1997-11-25T12:14:33.630Z", "order": 121 }, "geometry": { "type": "Point", "coordinates": [ 122.536, 1.241 ] } },
{ "type": "Feature", "properties": { "place": "156 km S of Ust’-Kamchatsk Staryy, Russia", "magnitudo": 7.8, "depth": 33.0, "tsunami": 0, "year": 1997, "date": "1997-12-05T11:26:54.690Z", "order": 122 }, "geometry": { "type": "Point", "coordinates": [ 162.035, 54.841 ] } },
{ "type": "Feature", "properties": { "place": "117 km N of Finschhafen, Papua New Guinea", "magnitudo": 7.2, "depth": 179.3, "tsunami": 0, "year": 1997, "date": "1997-12-22T02:05:50.080Z", "order": 123 }, "geometry": { "type": "Point", "coordinates": [ 147.867, -5.495 ] } },
{ "type": "Feature", "properties": { "place": "southeast of the Loyalty Islands", "magnitudo": 7.5, "depth": 100.6, "tsunami": 0, "year": 1998, "date": "1998-01-04T06:11:58.970Z", "order": 124 }, "geometry": { "type": "Point", "coordinates": [ 170.911, -22.301 ] } },
{ "type": "Feature", "properties": { "place": "34 km SSE of Antofagasta, Chile", "magnitudo": 7.1, "depth": 42.0, "tsunami": 0, "year": 1998, "date": "1998-01-30T12:16:08.690Z", "order": 125 }, "geometry": { "type": "Point", "coordinates": [ -70.207, -23.913 ] } },
{ "type": "Feature", "properties": { "place": "Balleny Islands region", "magnitudo": 8.1, "depth": 10.0, "tsunami": 0, "year": 1998, "date": "1998-03-25T03:12:25.070Z", "order": 126 }, "geometry": { "type": "Point", "coordinates": [ 149.527, -62.877 ] } },
{ "type": "Feature", "properties": { "place": "178 km ENE of Levuka, Fiji", "magnitudo": 7.2, "depth": 537.2, "tsunami": 0, "year": 1998, "date": "1998-03-29T19:48:16.210Z", "order": 127 }, "geometry": { "type": "Point", "coordinates": [ -179.092, -17.552 ] } },
{ "type": "Feature", "properties": { "place": "95 km W of Pariaman, Indonesia", "magnitudo": 7.0, "depth": 55.7, "tsunami": 0, "year": 1998, "date": "1998-04-01T17:56:23.360Z", "order": 128 }, "geometry": { "type": "Point", "coordinates": [ 99.261, -0.544 ] } },
{ "type": "Feature", "properties": { "place": "254 km SSE of Ishigaki, Japan", "magnitudo": 7.5, "depth": 33.0, "tsunami": 0, "year": 1998, "date": "1998-05-03T23:30:21.910Z", "order": 129 }, "geometry": { "type": "Point", "coordinates": [ 125.308, 22.306 ] } },
{ "type": "Feature", "properties": { "place": "52 km SE of Lata, Solomon Islands", "magnitudo": 7.0, "depth": 110.2, "tsunami": 0, "year": 1998, "date": "1998-07-16T11:56:36.420Z", "order": 130 }, "geometry": { "type": "Point", "coordinates": [ 166.16, -11.04 ] } },
{ "type": "Feature", "properties": { "place": "50 km WNW of Aitape, Papua New Guinea", "magnitudo": 7.0, "depth": 10.0, "tsunami": 0, "year": 1998, "date": "1998-07-17T08:49:13.280Z", "order": 131 }, "geometry": { "type": "Point", "coordinates": [ 141.926, -2.961 ] } },
{ "type": "Feature", "properties": { "place": "3 km E of Bahía de Caráquez, Ecuador", "magnitudo": 7.2, "depth": 33.0, "tsunami": 0, "year": 1998, "date": "1998-08-04T18:59:20.100Z", "order": 132 }, "geometry": { "type": "Point", "coordinates": [ -80.393, -0.593 ] } },
{ "type": "Feature", "properties": { "place": "Bonin Islands, Japan region", "magnitudo": 7.1, "depth": 440.5, "tsunami": 0, "year": 1998, "date": "1998-08-20T06:40:55.820Z", "order": 133 }, "geometry": { "type": "Point", "coordinates": [ 139.329, 28.932 ] } },
{ "type": "Feature", "properties": { "place": "278 km NE of Lospalos, Timor Leste", "magnitudo": 7.0, "depth": 33.0, "tsunami": 0, "year": 1998, "date": "1998-11-09T05:38:44.220Z", "order": 134 }, "geometry": { "type": "Point", "coordinates": [ 128.946, -6.92 ] } },
{ "type": "Feature", "properties": { "place": "264 km ESE of Luwuk, Indonesia", "magnitudo": 7.7, "depth": 33.0, "tsunami": 0, "year": 1998, "date": "1998-11-29T14:10:31.960Z", "order": 135 }, "geometry": { "type": "Point", "coordinates": [ 124.891, -2.071 ] } },
{ "type": "Feature", "properties": { "place": "110 km ESE of Kokopo, Papua New Guinea", "magnitudo": 7.0, "depth": 114.1, "tsunami": 0, "year": 1999, "date": "1999-01-19T03:35:33.840Z", "order": 136 }, "geometry": { "type": "Point", "coordinates": [ 153.235, -4.596 ] } },
{ "type": "Feature", "properties": { "place": "146 km NW of Sola, Vanuatu", "magnitudo": 7.3, "depth": 90.1, "tsunami": 0, "year": 1999, "date": "1999-02-06T21:47:59.470Z", "order": 137 }, "geometry": { "type": "Point", "coordinates": [ 166.697, -12.853 ] } },
{ "type": "Feature", "properties": { "place": "69 km S of Tabiauan, Philippines", "magnitudo": 7.1, "depth": 33.0, "tsunami": 0, "year": 1999, "date": "1999-03-04T08:52:01.900Z", "order": 138 }, "geometry": { "type": "Point", "coordinates": [ 121.937, 5.397 ] } },
{ "type": "Feature", "properties": { "place": "63 km W of Kimbe, Papua New Guinea", "magnitudo": 7.4, "depth": 150.0, "tsunami": 0, "year": 1999, "date": "1999-04-05T11:08:04Z", "order": 139 }, "geometry": { "type": "Point", "coordinates": [ 149.568, -5.591 ] } },
{ "type": "Feature", "properties": { "place": "57 km ENE of Wangqing, China", "magnitudo": 7.1, "depth": 565.7, "tsunami": 0, "year": 1999, "date": "1999-04-08T13:10:34.080Z", "order": 140 }, "geometry": { "type": "Point", "coordinates": [ 130.35, 43.607 ] } },
{ "type": "Feature", "properties": { "place": "92 km ENE of Kimbe, Papua New Guinea", "magnitudo": 7.1, "depth": 138.0, "tsunami": 0, "year": 1999, "date": "1999-05-10T20:33:02.090Z", "order": 141 }, "geometry": { "type": "Point", "coordinates": [ 150.88, -5.159 ] } },
{ "type": "Feature", "properties": { "place": "51 km SSE of Kokopo, Papua New Guinea", "magnitudo": 7.1, "depth": 73.7, "tsunami": 0, "year": 1999, "date": "1999-05-16T00:51:20.460Z", "order": 142 }, "geometry": { "type": "Point", "coordinates": [ 152.486, -4.751 ] } },
{ "type": "Feature", "properties": { "place": "1 km SE of Texcala, Mexico", "magnitudo": 7.0, "depth": 70.0, "tsunami": 0, "year": 1999, "date": "1999-06-15T20:42:05.930Z", "order": 143 }, "geometry": { "type": "Point", "coordinates": [ -97.436, 18.386 ] } },
{ "type": "Feature", "properties": { "place": "4 km ESE of Derince, Turkey", "magnitudo": 7.6, "depth": 17.0, "tsunami": 0, "year": 1999, "date": "1999-08-17T00:01:39.130Z", "order": 144 }, "geometry": { "type": "Point", "coordinates": [ 29.864, 40.748 ] } },
{ "type": "Feature", "properties": { "place": "21 km S of Puli, Taiwan", "magnitudo": 7.7, "depth": 33.0, "tsunami": 0, "year": 1999, "date": "1999-09-20T17:47:18.490Z", "order": 145 }, "geometry": { "type": "Point", "coordinates": [ 120.982, 23.772 ] } },
{ "type": "Feature", "properties": { "place": "15 km W of San Baltazar Loxicha, Mexico", "magnitudo": 7.5, "depth": 60.6, "tsunami": 0, "year": 1999, "date": "1999-09-30T16:31:15.690Z", "order": 146 }, "geometry": { "type": "Point", "coordinates": [ -96.931, 16.059 ] } },
{ "type": "Feature", "properties": { "place": "Hector Mine, CA Earthquake", "magnitudo": 7.1, "depth": 13.73, "tsunami": 0, "year": 1999, "date": "1999-10-16T09:46:44.460Z", "order": 147 }, "geometry": { "type": "Point", "coordinates": [ -116.265, 34.6033333 ] } },
{ "type": "Feature", "properties": { "place": "8 km S of Düzce, Turkey", "magnitudo": 7.2, "depth": 10.0, "tsunami": 0, "year": 1999, "date": "1999-11-12T16:57:19.550Z", "order": 148 }, "geometry": { "type": "Point", "coordinates": [ 31.161, 40.758 ] } },
{ "type": "Feature", "properties": { "place": "South Indian Ocean", "magnitudo": 7.0, "depth": 10.0, "tsunami": 0, "year": 1999, "date": "1999-11-15T05:42:43.220Z", "order": 149 }, "geometry": { "type": "Point", "coordinates": [ 88.976, -1.339 ] } },
{ "type": "Feature", "properties": { "place": "88 km W of Kandrian, Papua New Guinea", "magnitudo": 7.0, "depth": 33.0, "tsunami": 0, "year": 1999, "date": "1999-11-19T13:56:46.450Z", "order": 150 }, "geometry": { "type": "Point", "coordinates": [ 148.763, -6.351 ] } },
{ "type": "Feature", "properties": { "place": "92 km ESE of Lakatoro, Vanuatu", "magnitudo": 7.5, "depth": 33.0, "tsunami": 0, "year": 1999, "date": "1999-11-26T13:21:15.570Z", "order": 151 }, "geometry": { "type": "Point", "coordinates": [ 168.214, -16.423 ] } },
{ "type": "Feature", "properties": { "place": "26 km SSE of Karluk, Alaska", "magnitudo": 7.0, "depth": 43.6, "tsunami": 0, "year": 1999, "date": "1999-12-06T23:12:33.537Z", "order": 152 }, "geometry": { "type": "Point", "coordinates": [ -154.3469, 57.3424 ] } },
{ "type": "Feature", "properties": { "place": "14 km WNW of Bolitoc, Philippines", "magnitudo": 7.3, "depth": 33.0, "tsunami": 0, "year": 1999, "date": "1999-12-11T18:03:36.450Z", "order": 153 }, "geometry": { "type": "Point", "coordinates": [ 119.74, 15.766 ] } },
{ "type": "Feature", "properties": { "place": "117 km SSW of Hihifo, Tonga", "magnitudo": 7.2, "depth": 183.4, "tsunami": 0, "year": 2000, "date": "2000-01-08T16:47:20.580Z", "order": 154 }, "geometry": { "type": "Point", "coordinates": [ -174.248, -16.925 ] } },
{ "type": "Feature", "properties": { "place": "Volcano Islands, Japan region", "magnitudo": 7.6, "depth": 126.5, "tsunami": 0, "year": 2000, "date": "2000-03-28T11:00:22.510Z", "order": 155 }, "geometry": { "type": "Point", "coordinates": [ 143.73, 22.338 ] } },
{ "type": "Feature", "properties": { "place": "22 km NW of Añatuya, Argentina", "magnitudo": 7.0, "depth": 608.5, "tsunami": 0, "year": 2000, "date": "2000-04-23T09:27:23.320Z", "order": 156 }, "geometry": { "type": "Point", "coordinates": [ -62.99, -28.307 ] } },
{ "type": "Feature", "properties": { "place": "89 km E of Luwuk, Indonesia", "magnitudo": 7.6, "depth": 26.0, "tsunami": 0, "year": 2000, "date": "2000-05-04T04:21:16.210Z", "order": 157 }, "geometry": { "type": "Point", "coordinates": [ 123.573, -1.105 ] } },
{ "type": "Feature", "properties": { "place": "75 km N of San Antonio de los Cobres, Argentina", "magnitudo": 7.2, "depth": 225.0, "tsunami": 0, "year": 2000, "date": "2000-05-12T18:43:18.120Z", "order": 158 }, "geometry": { "type": "Point", "coordinates": [ -66.452, -23.548 ] } },
{ "type": "Feature", "properties": { "place": "103 km S of Bengkulu, Indonesia", "magnitudo": 7.9, "depth": 33.0, "tsunami": 0, "year": 2000, "date": "2000-06-04T16:28:26.170Z", "order": 159 }, "geometry": { "type": "Point", "coordinates": [ 102.087, -4.721 ] } },
{ "type": "Feature", "properties": { "place": "South Indian Ocean", "magnitudo": 7.9, "depth": 10.0, "tsunami": 0, "year": 2000, "date": "2000-06-18T14:44:13.310Z", "order": 160 }, "geometry": { "type": "Point", "coordinates": [ 97.453, -13.802 ] } },
{ "type": "Feature", "properties": { "place": "Bonin Islands, Japan region", "magnitudo": 7.4, "depth": 394.8, "tsunami": 0, "year": 2000, "date": "2000-08-06T07:27:12.900Z", "order": 161 }, "geometry": { "type": "Point", "coordinates": [ 139.556, 28.856 ] } },
{ "type": "Feature", "properties": { "place": "29 km WNW of Luganville, Vanuatu", "magnitudo": 7.0, "depth": 23.0, "tsunami": 0, "year": 2000, "date": "2000-10-04T16:58:44.310Z", "order": 162 }, "geometry": { "type": "Point", "coordinates": [ 166.91, -15.421 ] } },
{ "type": "Feature", "properties": { "place": "191 km ESE of Kokopo, Papua New Guinea", "magnitudo": 7.0, "depth": 50.0, "tsunami": 0, "year": 2000, "date": "2000-10-29T08:37:08.770Z", "order": 163 }, "geometry": { "type": "Point", "coordinates": [ 153.945, -4.766 ] } },
{ "type": "Feature", "properties": { "place": "24 km N of Rabaul, Papua New Guinea", "magnitudo": 8.0, "depth": 33.0, "tsunami": 0, "year": 2000, "date": "2000-11-16T04:54:56.740Z", "order": 164 }, "geometry": { "type": "Point", "coordinates": [ 152.169, -3.98 ] } },
{ "type": "Feature", "properties": { "place": "135 km SE of Kokopo, Papua New Guinea", "magnitudo": 7.8, "depth": 30.0, "tsunami": 0, "year": 2000, "date": "2000-11-16T07:42:16.930Z", "order": 165 }, "geometry": { "type": "Point", "coordinates": [ 153.102, -5.233 ] } },
{ "type": "Feature", "properties": { "place": "138 km SSW of Kokopo, Papua New Guinea", "magnitudo": 7.8, "depth": 33.0, "tsunami": 0, "year": 2000, "date": "2000-11-17T21:01:56.490Z", "order": 166 }, "geometry": { "type": "Point", "coordinates": [ 151.781, -5.496 ] } },
{ "type": "Feature", "properties": { "place": "37 km E of Balkanabat, Turkmenistan", "magnitudo": 7.0, "depth": 30.0, "tsunami": 0, "year": 2000, "date": "2000-12-06T17:11:06.400Z", "order": 167 }, "geometry": { "type": "Point", "coordinates": [ 54.799, 39.566 ] } },
{ "type": "Feature", "properties": { "place": "21 km SE of Lukatan, Philippines", "magnitudo": 7.5, "depth": 33.0, "tsunami": 0, "year": 2001, "date": "2001-01-01T06:57:04.170Z", "order": 168 }, "geometry": { "type": "Point", "coordinates": [ 126.579, 6.898 ] } },
{ "type": "Feature", "properties": { "place": "16 km NE of Port-Olry, Vanuatu", "magnitudo": 7.1, "depth": 103.0, "tsunami": 0, "year": 2001, "date": "2001-01-09T16:49:28Z", "order": 169 }, "geometry": { "type": "Point", "coordinates": [ 167.17, -14.928 ] } },
{ "type": "Feature", "properties": { "place": "28 km SSW of Puerto El Triunfo, El Salvador", "magnitudo": 7.7, "depth": 60.0, "tsunami": 0, "year": 2001, "date": "2001-01-13T17:33:32.380Z", "order": 170 }, "geometry": { "type": "Point", "coordinates": [ -88.66, 13.049 ] } },
{ "type": "Feature", "properties": { "place": "17 km NW of Bhach?u, India", "magnitudo": 7.7, "depth": 16.0, "tsunami": 0, "year": 2001, "date": "2001-01-26T03:16:40.500Z", "order": 171 }, "geometry": { "type": "Point", "coordinates": [ 70.232, 23.419 ] } },
{ "type": "Feature", "properties": { "place": "102 km SSE of Bengkulu, Indonesia", "magnitudo": 7.4, "depth": 36.0, "tsunami": 0, "year": 2001, "date": "2001-02-13T19:28:30.260Z", "order": 172 }, "geometry": { "type": "Point", "coordinates": [ 102.562, -4.68 ] } },
{ "type": "Feature", "properties": { "place": "137 km WNW of Ternate, Indonesia", "magnitudo": 7.1, "depth": 35.0, "tsunami": 0, "year": 2001, "date": "2001-02-24T07:23:48.730Z", "order": 173 }, "geometry": { "type": "Point", "coordinates": [ 126.249, 1.271 ] } },
{ "type": "Feature", "properties": { "place": "Kermadec Islands, New Zealand", "magnitudo": 7.2, "depth": 178.1, "tsunami": 0, "year": 2001, "date": "2001-06-03T02:41:57.160Z", "order": 174 }, "geometry": { "type": "Point", "coordinates": [ -178.633, -29.666 ] } },
{ "type": "Feature", "properties": { "place": "6 km SSW of Atico, Peru", "magnitudo": 8.4, "depth": 33.0, "tsunami": 0, "year": 2001, "date": "2001-06-23T20:33:14.130Z", "order": 175 }, "geometry": { "type": "Point", "coordinates": [ -73.641, -16.265 ] } },
{ "type": "Feature", "properties": { "place": "51 km SW of Punta de Bombón, Peru", "magnitudo": 7.6, "depth": 33.0, "tsunami": 0, "year": 2001, "date": "2001-07-07T09:38:43.520Z", "order": 176 }, "geometry": { "type": "Point", "coordinates": [ -72.077, -17.543 ] } },
{ "type": "Feature", "properties": { "place": "295 km NE of Gisborne, New Zealand", "magnitudo": 7.1, "depth": 33.0, "tsunami": 0, "year": 2001, "date": "2001-08-21T06:52:06.250Z", "order": 177 }, "geometry": { "type": "Point", "coordinates": [ -179.575, -36.813 ] } },
{ "type": "Feature", "properties": { "place": "69 km SSE of Inarajan Village, Guam", "magnitudo": 7.0, "depth": 37.0, "tsunami": 0, "year": 2001, "date": "2001-10-12T15:02:16.840Z", "order": 178 }, "geometry": { "type": "Point", "coordinates": [ 144.98, 12.686 ] } },
{ "type": "Feature", "properties": { "place": "155 km E of Kendari, Indonesia", "magnitudo": 7.5, "depth": 33.0, "tsunami": 0, "year": 2001, "date": "2001-10-19T03:28:44.460Z", "order": 179 }, "geometry": { "type": "Point", "coordinates": [ 123.907, -4.102 ] } },
{ "type": "Feature", "properties": { "place": "Southern Qinghai, China", "magnitudo": 7.8, "depth": 10.0, "tsunami": 0, "year": 2001, "date": "2001-11-14T09:26:10.010Z", "order": 180 }, "geometry": { "type": "Point", "coordinates": [ 90.541, 35.946 ] } },
{ "type": "Feature", "properties": { "place": "south of Australia", "magnitudo": 7.1, "depth": 10.0, "tsunami": 0, "year": 2001, "date": "2001-12-12T14:02:35.040Z", "order": 181 }, "geometry": { "type": "Point", "coordinates": [ 124.688, -42.813 ] } },
{ "type": "Feature", "properties": { "place": "50 km WNW of Port-Vila, Vanuatu", "magnitudo": 7.2, "depth": 21.0, "tsunami": 0, "year": 2002, "date": "2002-01-02T17:22:48.760Z", "order": 182 }, "geometry": { "type": "Point", "coordinates": [ 167.856, -17.6 ] } },
{ "type": "Feature", "properties": { "place": "51 km SW of Jurm, Afghanistan", "magnitudo": 7.4, "depth": 225.6, "tsunami": 0, "year": 2002, "date": "2002-03-03T12:08:19.740Z", "order": 183 }, "geometry": { "type": "Point", "coordinates": [ 70.482, 36.502 ] } },
{ "type": "Feature", "properties": { "place": "Mindanao, Philippines", "magnitudo": 7.5, "depth": 31.0, "tsunami": 0, "year": 2002, "date": "2002-03-05T21:16:09.130Z", "order": 184 }, "geometry": { "type": "Point", "coordinates": [ 124.249, 6.033 ] } },
{ "type": "Feature", "properties": { "place": "20 km SSW of Merizo Village, Guam", "magnitudo": 7.1, "depth": 85.7, "tsunami": 0, "year": 2002, "date": "2002-04-26T16:06:07Z", "order": 185 }, "geometry": { "type": "Point", "coordinates": [ 144.619, 13.088 ] } },
{ "type": "Feature", "properties": { "place": "50 km SW of Dongning, China", "magnitudo": 7.3, "depth": 566.0, "tsunami": 0, "year": 2002, "date": "2002-06-28T17:19:30.270Z", "order": 186 }, "geometry": { "type": "Point", "coordinates": [ 130.666, 43.752 ] } },
{ "type": "Feature", "properties": { "place": "Fiji region", "magnitudo": 7.7, "depth": 580.0, "tsunami": 0, "year": 2002, "date": "2002-08-19T11:01:01.190Z", "order": 187 }, "geometry": { "type": "Point", "coordinates": [ -179.513, -21.696 ] } },
{ "type": "Feature", "properties": { "place": "south of the Fiji Islands", "magnitudo": 7.7, "depth": 675.4, "tsunami": 0, "year": 2002, "date": "2002-08-19T11:08:24.310Z", "order": 188 }, "geometry": { "type": "Point", "coordinates": [ 178.495, -23.884 ] } },
{ "type": "Feature", "properties": { "place": "68 km ESE of Aitape, Papua New Guinea", "magnitudo": 7.6, "depth": 13.0, "tsunami": 0, "year": 2002, "date": "2002-09-08T18:44:23.710Z", "order": 189 }, "geometry": { "type": "Point", "coordinates": [ 142.945, -3.302 ] } },
{ "type": "Feature", "properties": { "place": "102 km SSE of Manokwari, Indonesia", "magnitudo": 7.6, "depth": 10.0, "tsunami": 0, "year": 2002, "date": "2002-10-10T10:50:20.570Z", "order": 190 }, "geometry": { "type": "Point", "coordinates": [ 134.297, -1.757 ] } },
{ "type": "Feature", "properties": { "place": "50 km NW of Sinabang, Indonesia", "magnitudo": 7.4, "depth": 30.0, "tsunami": 0, "year": 2002, "date": "2002-11-02T01:26:10.700Z", "order": 191 }, "geometry": { "type": "Point", "coordinates": [ 96.085, 2.824 ] } },
{ "type": "Feature", "properties": { "place": "75 km E of Cantwell, Alaska", "magnitudo": 7.9, "depth": 4.2, "tsunami": 0, "year": 2002, "date": "2002-11-03T22:12:41.518Z", "order": 192 }, "geometry": { "type": "Point", "coordinates": [ -147.4529, 63.5141 ] } },
{ "type": "Feature", "properties": { "place": "262 km E of Dolinsk, Russia", "magnitudo": 7.3, "depth": 459.1, "tsunami": 0, "year": 2002, "date": "2002-11-17T04:53:53.540Z", "order": 193 }, "geometry": { "type": "Point", "coordinates": [ 146.209, 47.824 ] } },
{ "type": "Feature", "properties": { "place": "126 km W of Kirakira, Solomon Islands", "magnitudo": 7.3, "depth": 33.0, "tsunami": 0, "year": 2003, "date": "2003-01-20T08:43:06.070Z", "order": 194 }, "geometry": { "type": "Point", "coordinates": [ 160.77, -10.491 ] } },
{ "type": "Feature", "properties": { "place": "16 km SSW of Cuyutlán, Mexico", "magnitudo": 7.6, "depth": 24.0, "tsunami": 0, "year": 2003, "date": "2003-01-22T02:06:34.610Z", "order": 195 }, "geometry": { "type": "Point", "coordinates": [ -104.104, 18.77 ] } },
{ "type": "Feature", "properties": { "place": "Rat Islands, Aleutian Islands, Alaska", "magnitudo": 7.1, "depth": 33.0, "tsunami": 0, "year": 2003, "date": "2003-03-17T16:36:17.310Z", "order": 196 }, "geometry": { "type": "Point", "coordinates": [ 177.978, 51.272 ] } },
{ "type": "Feature", "properties": { "place": "27 km SSW of ?funato, Japan", "magnitudo": 7.0, "depth": 68.0, "tsunami": 0, "year": 2003, "date": "2003-05-26T09:24:33.400Z", "order": 197 }, "geometry": { "type": "Point", "coordinates": [ 141.568, 38.849 ] } },
{ "type": "Feature", "properties": { "place": "116 km NE of Tobelo, Indonesia", "magnitudo": 7.0, "depth": 31.0, "tsunami": 0, "year": 2003, "date": "2003-05-26T19:23:27.940Z", "order": 198 }, "geometry": { "type": "Point", "coordinates": [ 128.855, 2.354 ] } },
{ "type": "Feature", "properties": { "place": "105 km E of Cruzeiro do Sul, Brazil", "magnitudo": 7.1, "depth": 558.1, "tsunami": 0, "year": 2003, "date": "2003-06-20T06:19:38.910Z", "order": 199 }, "geometry": { "type": "Point", "coordinates": [ -71.722, -7.606 ] } },
{ "type": "Feature", "properties": { "place": "Carlsberg Ridge", "magnitudo": 7.6, "depth": 10.0, "tsunami": 0, "year": 2003, "date": "2003-07-15T20:27:50.530Z", "order": 200 }, "geometry": { "type": "Point", "coordinates": [ 68.382, -2.598 ] } },
{ "type": "Feature", "properties": { "place": "Scotia Sea", "magnitudo": 7.6, "depth": 10.0, "tsunami": 0, "year": 2003, "date": "2003-08-04T04:37:20.130Z", "order": 201 }, "geometry": { "type": "Point", "coordinates": [ -43.411, -60.532 ] } },
{ "type": "Feature", "properties": { "place": "56 km NW of Te Anau, New Zealand", "magnitudo": 7.2, "depth": 28.0, "tsunami": 0, "year": 2003, "date": "2003-08-21T12:12:49.790Z", "order": 202 }, "geometry": { "type": "Point", "coordinates": [ 167.144, -45.104 ] } },
{ "type": "Feature", "properties": { "place": "134 km SSW of Kushiro, Japan", "magnitudo": 8.16, "depth": 27.0, "tsunami": 0, "year": 2003, "date": "2003-09-25T19:50:06.360Z", "order": 203 }, "geometry": { "type": "Point", "coordinates": [ 143.91, 41.815 ] } },
{ "type": "Feature", "properties": { "place": "119 km ESE of Shizunai-furukawach?, Japan", "magnitudo": 7.4, "depth": 33.0, "tsunami": 0, "year": 2003, "date": "2003-09-25T21:08:00.030Z", "order": 204 }, "geometry": { "type": "Point", "coordinates": [ 143.593, 41.774 ] } },
{ "type": "Feature", "properties": { "place": "29 km S of Aktash, Russia", "magnitudo": 7.3, "depth": 16.0, "tsunami": 0, "year": 2003, "date": "2003-09-27T11:33:25.080Z", "order": 205 }, "geometry": { "type": "Point", "coordinates": [ 87.813, 50.038 ] } },
{ "type": "Feature", "properties": { "place": "Rat Islands, Aleutian Islands, Alaska", "magnitudo": 7.8, "depth": 33.0, "tsunami": 0, "year": 2003, "date": "2003-11-17T06:43:06.800Z", "order": 206 }, "geometry": { "type": "Point", "coordinates": [ 178.65, 51.146 ] } },
{ "type": "Feature", "properties": { "place": "201 km ESE of Tadine, New Caledonia", "magnitudo": 7.3, "depth": 10.0, "tsunami": 0, "year": 2003, "date": "2003-12-27T16:00:59.450Z", "order": 207 }, "geometry": { "type": "Point", "coordinates": [ 169.766, -22.015 ] } },
{ "type": "Feature", "properties": { "place": "202 km ESE of Tadine, New Caledonia", "magnitudo": 7.1, "depth": 22.0, "tsunami": 0, "year": 2004, "date": "2004-01-03T16:23:21.020Z", "order": 208 }, "geometry": { "type": "Point", "coordinates": [ 169.683, -22.253 ] } },
{ "type": "Feature", "properties": { "place": "28 km S of Nabire, Indonesia", "magnitudo": 7.0, "depth": 16.6, "tsunami": 0, "year": 2004, "date": "2004-02-05T21:05:02.840Z", "order": 209 }, "geometry": { "type": "Point", "coordinates": [ 135.538, -3.615 ] } },
{ "type": "Feature", "properties": { "place": "Near the south coast of Papua, Indonesia", "magnitudo": 7.3, "depth": 10.0, "tsunami": 0, "year": 2004, "date": "2004-02-07T02:42:35.210Z", "order": 210 }, "geometry": { "type": "Point", "coordinates": [ 135.023, -4.003 ] } },
{ "type": "Feature", "properties": { "place": "208 km ENE of Levuka, Fiji", "magnitudo": 7.1, "depth": 565.5, "tsunami": 0, "year": 2004, "date": "2004-07-15T04:27:14.730Z", "order": 211 }, "geometry": { "type": "Point", "coordinates": [ -178.76, -17.656 ] } },
{ "type": "Feature", "properties": { "place": "100 km SSE of Jambi City, Indonesia", "magnitudo": 7.3, "depth": 582.1, "tsunami": 0, "year": 2004, "date": "2004-07-25T14:35:19.060Z", "order": 212 }, "geometry": { "type": "Point", "coordinates": [ 103.981, -2.427 ] } },
{ "type": "Feature", "properties": { "place": "94 km SE of Shing?, Japan", "magnitudo": 7.2, "depth": 14.0, "tsunami": 0, "year": 2004, "date": "2004-09-05T10:07:07.820Z", "order": 213 }, "geometry": { "type": "Point", "coordinates": [ 136.618, 33.07 ] } },
{ "type": "Feature", "properties": { "place": "118 km ESE of Shing?, Japan", "magnitudo": 7.4, "depth": 10.0, "tsunami": 0, "year": 2004, "date": "2004-09-05T14:57:18.610Z", "order": 214 }, "geometry": { "type": "Point", "coordinates": [ 137.071, 33.184 ] } },
{ "type": "Feature", "properties": { "place": "43 km SSW of Masachapa, Nicaragua", "magnitudo": 7.0, "depth": 35.0, "tsunami": 0, "year": 2004, "date": "2004-10-09T21:26:53.690Z", "order": 215 }, "geometry": { "type": "Point", "coordinates": [ -86.665, 11.422 ] } },
{ "type": "Feature", "properties": { "place": "63 km NW of Maubara, Timor Leste", "magnitudo": 7.5, "depth": 10.0, "tsunami": 0, "year": 2004, "date": "2004-11-11T21:26:41.150Z", "order": 216 }, "geometry": { "type": "Point", "coordinates": [ 124.868, -8.152 ] } },
{ "type": "Feature", "properties": { "place": "32 km SSW of Pizarro, Colombia", "magnitudo": 7.2, "depth": 15.0, "tsunami": 0, "year": 2004, "date": "2004-11-15T09:06:56.560Z", "order": 217 }, "geometry": { "type": "Point", "coordinates": [ -77.508, 4.695 ] } },
{ "type": "Feature", "properties": { "place": "255 km W of Riverton, New Zealand", "magnitudo": 7.1, "depth": 10.0, "tsunami": 0, "year": 2004, "date": "2004-11-22T20:26:23.900Z", "order": 218 }, "geometry": { "type": "Point", "coordinates": [ 164.721, -46.676 ] } },
{ "type": "Feature", "properties": { "place": "29 km SSW of Nabire, Indonesia", "magnitudo": 7.1, "depth": 10.0, "tsunami": 0, "year": 2004, "date": "2004-11-26T02:25:03.310Z", "order": 219 }, "geometry": { "type": "Point", "coordinates": [ 135.404, -3.609 ] } },
{ "type": "Feature", "properties": { "place": "51 km SW of Nemuro, Japan", "magnitudo": 7.0, "depth": 39.0, "tsunami": 0, "year": 2004, "date": "2004-11-28T18:32:14.130Z", "order": 220 }, "geometry": { "type": "Point", "coordinates": [ 145.119, 43.006 ] } },
{ "type": "Feature", "properties": { "place": "north of Macquarie Island", "magnitudo": 8.1, "depth": 10.0, "tsunami": 0, "year": 2004, "date": "2004-12-23T14:59:04.410Z", "order": 221 }, "geometry": { "type": "Point", "coordinates": [ 161.345, -49.312 ] } },
{ "type": "Feature", "properties": { "place": "2004 Sumatra - Andaman Islands Earthquake", "magnitudo": 9.1, "depth": 30.0, "tsunami": 0, "year": 2004, "date": "2004-12-26T00:58:53.450Z", "order": 222 }, "geometry": { "type": "Point", "coordinates": [ 95.982, 3.295 ] } },
{ "type": "Feature", "properties": { "place": "284 km WNW of Sabang, Indonesia", "magnitudo": 7.2, "depth": 39.2, "tsunami": 0, "year": 2004, "date": "2004-12-26T04:21:29.810Z", "order": 223 }, "geometry": { "type": "Point", "coordinates": [ 92.958, 6.91 ] } },
{ "type": "Feature", "properties": { "place": "138 km SW of Palimbang, Philippines", "magnitudo": 7.1, "depth": 525.0, "tsunami": 0, "year": 2005, "date": "2005-02-05T12:23:18.940Z", "order": 224 }, "geometry": { "type": "Point", "coordinates": [ 123.337, 5.293 ] } },
{ "type": "Feature", "properties": { "place": "Banda Sea", "magnitudo": 7.1, "depth": 201.7, "tsunami": 0, "year": 2005, "date": "2005-03-02T10:42:12.230Z", "order": 225 }, "geometry": { "type": "Point", "coordinates": [ 129.933, -6.527 ] } },
{ "type": "Feature", "properties": { "place": "Banda Sea", "magnitudo": 7.1, "depth": 201.7, "tsunami": 0, "year": 2005, "date": "2005-03-02T10:42:12.230Z", "order": 226 }, "geometry": { "type": "Point", "coordinates": [ 129.933, -6.527 ] } },
{ "type": "Feature", "properties": { "place": "78 km WSW of Singkil, Indonesia", "magnitudo": 8.6, "depth": 30.0, "tsunami": 0, "year": 2005, "date": "2005-03-28T16:09:36.530Z", "order": 227 }, "geometry": { "type": "Point", "coordinates": [ 97.108, 2.085 ] } },
{ "type": "Feature", "properties": { "place": "102 km ENE of Iquique, Chile", "magnitudo": 7.8, "depth": 115.6, "tsunami": 0, "year": 2005, "date": "2005-06-13T22:44:33.900Z", "order": 228 }, "geometry": { "type": "Point", "coordinates": [ -69.197, -19.987 ] } },
{ "type": "Feature", "properties": { "place": "153 km W of Big Lagoon, California", "magnitudo": 7.2, "depth": 16.0, "tsunami": 0, "year": 2005, "date": "2005-06-15T02:50:54.190Z", "order": 229 }, "geometry": { "type": "Point", "coordinates": [ -125.953, 41.292 ] } },
{ "type": "Feature", "properties": { "place": "Nicobar Islands, India region", "magnitudo": 7.2, "depth": 16.0, "tsunami": 0, "year": 2005, "date": "2005-07-24T15:42:06.210Z", "order": 230 }, "geometry": { "type": "Point", "coordinates": [ 92.19, 7.92 ] } },
{ "type": "Feature", "properties": { "place": "66 km ESE of Ishinomaki, Japan", "magnitudo": 7.2, "depth": 36.0, "tsunami": 0, "year": 2005, "date": "2005-08-16T02:46:28.400Z", "order": 231 }, "geometry": { "type": "Point", "coordinates": [ 142.039, 38.276 ] } },
{ "type": "Feature", "properties": { "place": "135 km E of Kokopo, Papua New Guinea", "magnitudo": 7.6, "depth": 90.0, "tsunami": 0, "year": 2005, "date": "2005-09-09T07:26:43.730Z", "order": 232 }, "geometry": { "type": "Point", "coordinates": [ 153.474, -4.539 ] } },
{ "type": "Feature", "properties": { "place": "39 km NW of Yurimaguas, Peru", "magnitudo": 7.5, "depth": 115.0, "tsunami": 0, "year": 2005, "date": "2005-09-26T01:55:37.670Z", "order": 233 }, "geometry": { "type": "Point", "coordinates": [ -76.398, -5.678 ] } },
{ "type": "Feature", "properties": { "place": "21 km NNE of Muzaffar?b?d, Pakistan", "magnitudo": 7.6, "depth": 26.0, "tsunami": 0, "year": 2005, "date": "2005-10-08T03:50:40.800Z", "order": 234 }, "geometry": { "type": "Point", "coordinates": [ 73.588, 34.539 ] } },
{ "type": "Feature", "properties": { "place": "293 km ESE of Kamaishi, Japan", "magnitudo": 7.0, "depth": 11.0, "tsunami": 0, "year": 2005, "date": "2005-11-14T21:38:51.420Z", "order": 235 }, "geometry": { "type": "Point", "coordinates": [ 144.896, 38.107 ] } },
{ "type": "Feature", "properties": { "place": "east of the South Sandwich Islands", "magnitudo": 7.4, "depth": 13.0, "tsunami": 0, "year": 2006, "date": "2006-01-02T06:10:49.760Z", "order": 236 }, "geometry": { "type": "Point", "coordinates": [ -21.606, -60.957 ] } },
{ "type": "Feature", "properties": { "place": "Fiji region", "magnitudo": 7.2, "depth": 582.9, "tsunami": 0, "year": 2006, "date": "2006-01-02T22:13:40.490Z", "order": 237 }, "geometry": { "type": "Point", "coordinates": [ -178.178, -19.926 ] } },
{ "type": "Feature", "properties": { "place": "196 km S of Ambon, Indonesia", "magnitudo": 7.6, "depth": 397.0, "tsunami": 0, "year": 2006, "date": "2006-01-27T16:58:53.670Z", "order": 238 }, "geometry": { "type": "Point", "coordinates": [ 128.131, -5.473 ] } },
{ "type": "Feature", "properties": { "place": "160 km SE of Chipinge, Zimbabwe", "magnitudo": 7.0, "depth": 11.0, "tsunami": 0, "year": 2006, "date": "2006-02-22T22:19:07.800Z", "order": 239 }, "geometry": { "type": "Point", "coordinates": [ 33.583, -21.324 ] } },
{ "type": "Feature", "properties": { "place": "80 km NE of Tilichiki, Russia", "magnitudo": 7.6, "depth": 22.0, "tsunami": 0, "year": 2006, "date": "2006-04-20T23:25:02.150Z", "order": 240 }, "geometry": { "type": "Point", "coordinates": [ 167.089, 60.949 ] } },
{ "type": "Feature", "properties": { "place": "47 km SSE of Pangai, Tonga", "magnitudo": 8.0, "depth": 55.0, "tsunami": 0, "year": 2006, "date": "2006-05-03T15:26:40.290Z", "order": 241 }, "geometry": { "type": "Point", "coordinates": [ -174.123, -20.187 ] } },
{ "type": "Feature", "properties": { "place": "Kermadec Islands region", "magnitudo": 7.4, "depth": 152.0, "tsunami": 0, "year": 2006, "date": "2006-05-16T10:39:23.340Z", "order": 242 }, "geometry": { "type": "Point", "coordinates": [ -179.307, -31.81 ] } },
{ "type": "Feature", "properties": { "place": "226 km SSW of Singaparna, Indonesia", "magnitudo": 7.7, "depth": 20.0, "tsunami": 0, "year": 2006, "date": "2006-07-17T08:19:26.680Z", "order": 243 }, "geometry": { "type": "Point", "coordinates": [ 107.419, -9.284 ] } },
{ "type": "Feature", "properties": { "place": "Scotia Sea", "magnitudo": 7.0, "depth": 13.0, "tsunami": 0, "year": 2006, "date": "2006-08-20T03:41:48.040Z", "order": 244 }, "geometry": { "type": "Point", "coordinates": [ -34.371, -61.029 ] } },
{ "type": "Feature", "properties": { "place": "Kuril Islands", "magnitudo": 8.3, "depth": 10.0, "tsunami": 0, "year": 2006, "date": "2006-11-15T11:14:13.570Z", "order": 245 }, "geometry": { "type": "Point", "coordinates": [ 153.266, 46.592 ] } },
{ "type": "Feature", "properties": { "place": "30 km SW of Hengchun, Taiwan", "magnitudo": 7.1, "depth": 10.0, "tsunami": 0, "year": 2006, "date": "2006-12-26T12:26:21.140Z", "order": 246 }, "geometry": { "type": "Point", "coordinates": [ 120.547, 21.799 ] } },
{ "type": "Feature", "properties": { "place": "east of the Kuril Islands", "magnitudo": 8.1, "depth": 10.0, "tsunami": 0, "year": 2007, "date": "2007-01-13T04:23:21.160Z", "order": 247 }, "geometry": { "type": "Point", "coordinates": [ 154.524, 46.243 ] } },
{ "type": "Feature", "properties": { "place": "126 km WNW of Ternate, Indonesia", "magnitudo": 7.5, "depth": 22.0, "tsunami": 0, "year": 2007, "date": "2007-01-21T11:27:45.060Z", "order": 248 }, "geometry": { "type": "Point", "coordinates": [ 126.282, 1.065 ] } },
{ "type": "Feature", "properties": { "place": "119 km S of Isangel, Vanuatu", "magnitudo": 7.1, "depth": 34.0, "tsunami": 0, "year": 2007, "date": "2007-03-25T00:40:01.610Z", "order": 249 }, "geometry": { "type": "Point", "coordinates": [ 169.357, -20.617 ] } },
{ "type": "Feature", "properties": { "place": "45 km SSE of Gizo, Solomon Islands", "magnitudo": 8.1, "depth": 24.0, "tsunami": 0, "year": 2007, "date": "2007-04-01T20:39:58.710Z", "order": 250 }, "geometry": { "type": "Point", "coordinates": [ 157.043, -8.466 ] } },
{ "type": "Feature", "properties": { "place": "56 km E of Luganville, Vanuatu", "magnitudo": 7.2, "depth": 120.0, "tsunami": 0, "year": 2007, "date": "2007-08-01T17:08:51.400Z", "order": 251 }, "geometry": { "type": "Point", "coordinates": [ 167.68, -15.595 ] } },
{ "type": "Feature", "properties": { "place": "35 km NNE of Rengasdengklok, Indonesia", "magnitudo": 7.5, "depth": 280.0, "tsunami": 0, "year": 2007, "date": "2007-08-08T17:05:04.920Z", "order": 252 }, "geometry": { "type": "Point", "coordinates": [ 107.419, -5.859 ] } },
{ "type": "Feature", "properties": { "place": "41 km SW of San Vicente de Cañete, Peru", "magnitudo": 8.0, "depth": 39.0, "tsunami": 0, "year": 2007, "date": "2007-08-15T23:40:57.890Z", "order": 253 }, "geometry": { "type": "Point", "coordinates": [ -76.603, -13.386 ] } },
{ "type": "Feature", "properties": { "place": "97 km S of Lata, Solomon Islands", "magnitudo": 7.2, "depth": 35.0, "tsunami": 0, "year": 2007, "date": "2007-09-02T01:05:18.150Z", "order": 254 }, "geometry": { "type": "Point", "coordinates": [ 165.762, -11.61 ] } },
{ "type": "Feature", "properties": { "place": "122 km SW of Bengkulu, Indonesia", "magnitudo": 8.4, "depth": 34.0, "tsunami": 0, "year": 2007, "date": "2007-09-12T11:10:26.830Z", "order": 255 }, "geometry": { "type": "Point", "coordinates": [ 101.367, -4.438 ] } },
{ "type": "Feature", "properties": { "place": "87 km SW of Sungai Penuh, Indonesia", "magnitudo": 7.9, "depth": 35.0, "tsunami": 0, "year": 2007, "date": "2007-09-12T23:49:03.720Z", "order": 256 }, "geometry": { "type": "Point", "coordinates": [ 100.841, -2.625 ] } },
{ "type": "Feature", "properties": { "place": "153 km SSW of Padang, Indonesia", "magnitudo": 7.0, "depth": 22.0, "tsunami": 0, "year": 2007, "date": "2007-09-13T03:35:28.720Z", "order": 257 }, "geometry": { "type": "Point", "coordinates": [ 99.627, -2.13 ] } },
{ "type": "Feature", "properties": { "place": "Volcano Islands, Japan region", "magnitudo": 7.5, "depth": 260.0, "tsunami": 0, "year": 2007, "date": "2007-09-28T13:38:57.880Z", "order": 258 }, "geometry": { "type": "Point", "coordinates": [ 142.668, 22.013 ] } },
{ "type": "Feature", "properties": { "place": "Auckland Islands, New Zealand region", "magnitudo": 7.4, "depth": 10.0, "tsunami": 0, "year": 2007, "date": "2007-09-30T05:23:34.070Z", "order": 259 }, "geometry": { "type": "Point", "coordinates": [ 164.115, -49.271 ] } },
{ "type": "Feature", "properties": { "place": "36 km ESE of Tocopilla, Chile", "magnitudo": 7.7, "depth": 40.0, "tsunami": 0, "year": 2007, "date": "2007-11-14T15:40:50.530Z", "order": 260 }, "geometry": { "type": "Point", "coordinates": [ -69.89, -22.247 ] } },
{ "type": "Feature", "properties": { "place": "18 km WNW of Basse-Pointe, Martinique", "magnitudo": 7.4, "depth": 156.0, "tsunami": 0, "year": 2007, "date": "2007-11-29T19:00:20.420Z", "order": 261 }, "geometry": { "type": "Point", "coordinates": [ -61.274, 14.944 ] } },
{ "type": "Feature", "properties": { "place": "south of the Fiji Islands", "magnitudo": 7.8, "depth": 152.5, "tsunami": 0, "year": 2007, "date": "2007-12-09T07:28:20.820Z", "order": 262 }, "geometry": { "type": "Point", "coordinates": [ -177.514, -25.996 ] } },
{ "type": "Feature", "properties": { "place": "207 km WSW of Adak, Alaska", "magnitudo": 7.2, "depth": 34.0, "tsunami": 0, "year": 2007, "date": "2007-12-19T09:30:27.930Z", "order": 263 }, "geometry": { "type": "Point", "coordinates": [ -179.509, 51.36 ] } },
{ "type": "Feature", "properties": { "place": "56 km NW of Sinabang, Indonesia", "magnitudo": 7.4, "depth": 26.0, "tsunami": 0, "year": 2008, "date": "2008-02-20T08:08:30.520Z", "order": 264 }, "geometry": { "type": "Point", "coordinates": [ 95.964, 2.768 ] } },
{ "type": "Feature", "properties": { "place": "164 km WSW of Sungai Penuh, Indonesia", "magnitudo": 7.2, "depth": 25.0, "tsunami": 0, "year": 2008, "date": "2008-02-25T08:36:33.030Z", "order": 265 }, "geometry": { "type": "Point", "coordinates": [ 99.972, -2.486 ] } },
{ "type": "Feature", "properties": { "place": "226 km SE of Hotan, China", "magnitudo": 7.2, "depth": 10.0, "tsunami": 0, "year": 2008, "date": "2008-03-20T22:32:57.930Z", "order": 266 }, "geometry": { "type": "Point", "coordinates": [ 81.467, 35.49 ] } },
{ "type": "Feature", "properties": { "place": "71 km SW of Isangel, Vanuatu", "magnitudo": 7.3, "depth": 33.0, "tsunami": 0, "year": 2008, "date": "2008-04-09T12:46:12.720Z", "order": 267 }, "geometry": { "type": "Point", "coordinates": [ 168.892, -20.071 ] } },
{ "type": "Feature", "properties": { "place": "Macquarie Island region", "magnitudo": 7.1, "depth": 16.0, "tsunami": 0, "year": 2008, "date": "2008-04-12T00:30:12.600Z", "order": 268 }, "geometry": { "type": "Point", "coordinates": [ 158.453, -55.664 ] } },
{ "type": "Feature", "properties": { "place": "58 km W of Tianpeng, China", "magnitudo": 7.9, "depth": 19.0, "tsunami": 0, "year": 2008, "date": "2008-05-12T06:28:01.570Z", "order": 269 }, "geometry": { "type": "Point", "coordinates": [ 103.322, 31.002 ] } },
{ "type": "Feature", "properties": { "place": "South Sandwich Islands region", "magnitudo": 7.0, "depth": 8.0, "tsunami": 0, "year": 2008, "date": "2008-06-30T06:17:43.020Z", "order": 270 }, "geometry": { "type": "Point", "coordinates": [ -22.099, -58.227 ] } },
{ "type": "Feature", "properties": { "place": "Sea of Okhotsk", "magnitudo": 7.7, "depth": 632.8, "tsunami": 0, "year": 2008, "date": "2008-07-05T02:12:04.480Z", "order": 271 }, "geometry": { "type": "Point", "coordinates": [ 152.886, 53.882 ] } },
{ "type": "Feature", "properties": { "place": "107 km E of Namie, Japan", "magnitudo": 7.0, "depth": 22.0, "tsunami": 0, "year": 2008, "date": "2008-07-19T02:39:28.700Z", "order": 272 }, "geometry": { "type": "Point", "coordinates": [ 142.214, 37.552 ] } },
{ "type": "Feature", "properties": { "place": "Kermadec Islands, New Zealand", "magnitudo": 7.0, "depth": 36.0, "tsunami": 0, "year": 2008, "date": "2008-09-29T15:19:31.590Z", "order": 273 }, "geometry": { "type": "Point", "coordinates": [ -177.683, -29.756 ] } },
{ "type": "Feature", "properties": { "place": "135 km NW of Gorontalo, Indonesia", "magnitudo": 7.4, "depth": 30.0, "tsunami": 0, "year": 2008, "date": "2008-11-16T17:02:32.700Z", "order": 274 }, "geometry": { "type": "Point", "coordinates": [ 122.091, 1.271 ] } },
{ "type": "Feature", "properties": { "place": "284 km WSW of Mil’kovo, Russia", "magnitudo": 7.3, "depth": 492.3, "tsunami": 0, "year": 2008, "date": "2008-11-24T09:02:58.760Z", "order": 275 }, "geometry": { "type": "Point", "coordinates": [ 154.322, 54.203 ] } },
{ "type": "Feature", "properties": { "place": "140 km WNW of Manokwari, Indonesia", "magnitudo": 7.7, "depth": 17.0, "tsunami": 0, "year": 2009, "date": "2009-01-03T19:43:50.650Z", "order": 276 }, "geometry": { "type": "Point", "coordinates": [ 132.885, -0.414 ] } },
{ "type": "Feature", "properties": { "place": "86 km WNW of Manokwari, Indonesia", "magnitudo": 7.4, "depth": 23.0, "tsunami": 0, "year": 2009, "date": "2009-01-03T22:33:40.290Z", "order": 277 }, "geometry": { "type": "Point", "coordinates": [ 133.305, -0.691 ] } },
{ "type": "Feature", "properties": { "place": "east of the Kuril Islands", "magnitudo": 7.4, "depth": 36.0, "tsunami": 0, "year": 2009, "date": "2009-01-15T17:49:39.070Z", "order": 278 }, "geometry": { "type": "Point", "coordinates": [ 155.154, 46.857 ] } },
{ "type": "Feature", "properties": { "place": "196 km SSE of Sarangani, Philippines", "magnitudo": 7.2, "depth": 20.0, "tsunami": 0, "year": 2009, "date": "2009-02-11T17:34:50.490Z", "order": 279 }, "geometry": { "type": "Point", "coordinates": [ 126.387, 3.886 ] } },
{ "type": "Feature", "properties": { "place": "Kermadec Islands region", "magnitudo": 7.0, "depth": 25.0, "tsunami": 0, "year": 2009, "date": "2009-02-18T21:53:45.160Z", "order": 280 }, "geometry": { "type": "Point", "coordinates": [ -176.33, -27.424 ] } },
{ "type": "Feature", "properties": { "place": "191 km S of ‘Ohonua, Tonga", "magnitudo": 7.6, "depth": 31.0, "tsunami": 0, "year": 2009, "date": "2009-03-19T18:17:40.470Z", "order": 281 }, "geometry": { "type": "Point", "coordinates": [ -174.66, -23.043 ] } },
{ "type": "Feature", "properties": { "place": "46 km NW of Guanaja, Honduras", "magnitudo": 7.3, "depth": 19.0, "tsunami": 0, "year": 2009, "date": "2009-05-28T08:24:46.560Z", "order": 282 }, "geometry": { "type": "Point", "coordinates": [ -86.217, 16.731 ] } },
{ "type": "Feature", "properties": { "place": "97 km WSW of Te Anau, New Zealand", "magnitudo": 7.8, "depth": 12.0, "tsunami": 0, "year": 2009, "date": "2009-07-15T09:22:29.030Z", "order": 283 }, "geometry": { "type": "Point", "coordinates": [ 166.562, -45.762 ] } },
{ "type": "Feature", "properties": { "place": "161 km S of ?yama, Japan", "magnitudo": 7.1, "depth": 292.0, "tsunami": 0, "year": 2009, "date": "2009-08-09T10:55:55.110Z", "order": 284 }, "geometry": { "type": "Point", "coordinates": [ 137.944, 33.167 ] } },
{ "type": "Feature", "properties": { "place": "266 km N of Bamboo Flat, India", "magnitudo": 7.5, "depth": 24.0, "tsunami": 0, "year": 2009, "date": "2009-08-10T19:55:38.730Z", "order": 285 }, "geometry": { "type": "Point", "coordinates": [ 92.902, 14.099 ] } },
{ "type": "Feature", "properties": { "place": "66 km SSW of Banjar, Indonesia", "magnitudo": 7.0, "depth": 46.0, "tsunami": 0, "year": 2009, "date": "2009-09-02T07:55:01.050Z", "order": 286 }, "geometry": { "type": "Point", "coordinates": [ 107.297, -7.782 ] } },
{ "type": "Feature", "properties": { "place": "168 km SSW of Matavai, Samoa", "magnitudo": 8.1, "depth": 18.0, "tsunami": 0, "year": 2009, "date": "2009-09-29T17:48:10.990Z", "order": 287 }, "geometry": { "type": "Point", "coordinates": [ -172.095, -15.489 ] } },
{ "type": "Feature", "properties": { "place": "30 km WSW of Pariaman, Indonesia", "magnitudo": 7.6, "depth": 81.0, "tsunami": 0, "year": 2009, "date": "2009-09-30T10:16:09.250Z", "order": 288 }, "geometry": { "type": "Point", "coordinates": [ 99.867, -0.72 ] } },
{ "type": "Feature", "properties": { "place": "148 km NW of Sola, Vanuatu", "magnitudo": 7.7, "depth": 45.0, "tsunami": 0, "year": 2009, "date": "2009-10-07T22:03:14.470Z", "order": 289 }, "geometry": { "type": "Point", "coordinates": [ 166.51, -13.006 ] } },
{ "type": "Feature", "properties": { "place": "196 km NW of Sola, Vanuatu", "magnitudo": 7.8, "depth": 35.0, "tsunami": 0, "year": 2009, "date": "2009-10-07T22:18:51.240Z", "order": 290 }, "geometry": { "type": "Point", "coordinates": [ 166.382, -12.517 ] } },
{ "type": "Feature", "properties": { "place": "143 km NW of Sola, Vanuatu", "magnitudo": 7.4, "depth": 31.1, "tsunami": 0, "year": 2009, "date": "2009-10-07T23:13:48.160Z", "order": 291 }, "geometry": { "type": "Point", "coordinates": [ 166.497, -13.093 ] } },
{ "type": "Feature", "properties": { "place": "77 km ENE of Ba, Fiji", "magnitudo": 7.3, "depth": 595.0, "tsunami": 0, "year": 2009, "date": "2009-11-09T10:44:55.110Z", "order": 292 }, "geometry": { "type": "Point", "coordinates": [ 178.331, -17.239 ] } },
{ "type": "Feature", "properties": { "place": "94 km SE of Gizo, Solomon Islands", "magnitudo": 7.1, "depth": 10.0, "tsunami": 0, "year": 2010, "date": "2010-01-03T22:36:25.640Z", "order": 293 }, "geometry": { "type": "Point", "coordinates": [ 157.354, -8.783 ] } },
{ "type": "Feature", "properties": { "place": "10 km SE of Léogâne, Haiti", "magnitudo": 7.0, "depth": 13.0, "tsunami": 0, "year": 2010, "date": "2010-01-12T21:53:10.060Z", "order": 294 }, "geometry": { "type": "Point", "coordinates": [ -72.571, 18.443 ] } },
{ "type": "Feature", "properties": { "place": "70 km SE of Katsuren-haebaru, Japan", "magnitudo": 7.0, "depth": 25.0, "tsunami": 0, "year": 2010, "date": "2010-02-26T20:31:26.970Z", "order": 295 }, "geometry": { "type": "Point", "coordinates": [ 128.425, 25.93 ] } },
{ "type": "Feature", "properties": { "place": "36 km WNW of Quirihue, Chile", "magnitudo": 8.8, "depth": 22.9, "tsunami": 0, "year": 2010, "date": "2010-02-27T06:34:11.530Z", "order": 296 }, "geometry": { "type": "Point", "coordinates": [ -72.898, -36.122 ] } },
{ "type": "Feature", "properties": { "place": "124 km W of Lebu, Chile", "magnitudo": 7.4, "depth": 35.0, "tsunami": 0, "year": 2010, "date": "2010-02-27T08:01:23.010Z", "order": 297 }, "geometry": { "type": "Point", "coordinates": [ -75.048, -37.773 ] } },
{ "type": "Feature", "properties": { "place": "52 km NW of Santa Cruz, Chile", "magnitudo": 7.0, "depth": 18.0, "tsunami": 0, "year": 2010, "date": "2010-03-11T14:55:27.510Z", "order": 298 }, "geometry": { "type": "Point", "coordinates": [ -71.799, -34.326 ] } },
{ "type": "Feature", "properties": { "place": "45 km SSW of Meulaboh, Indonesia", "magnitudo": 7.2, "depth": 38.0, "tsunami": 0, "year": 2010, "date": "2010-05-09T05:59:41.620Z", "order": 299 }, "geometry": { "type": "Point", "coordinates": [ 96.018, 3.748 ] } },
{ "type": "Feature", "properties": { "place": "100 km WNW of Sola, Vanuatu", "magnitudo": 7.2, "depth": 31.0, "tsunami": 0, "year": 2010, "date": "2010-05-27T17:14:46.570Z", "order": 300 }, "geometry": { "type": "Point", "coordinates": [ 166.643, -13.698 ] } },
{ "type": "Feature", "properties": { "place": "Nicobar Islands, India region", "magnitudo": 7.5, "depth": 35.0, "tsunami": 0, "year": 2010, "date": "2010-06-12T19:26:50.460Z", "order": 301 }, "geometry": { "type": "Point", "coordinates": [ 91.936, 7.881 ] } },
{ "type": "Feature", "properties": { "place": "121 km SSE of Biak, Indonesia", "magnitudo": 7.0, "depth": 18.0, "tsunami": 0, "year": 2010, "date": "2010-06-16T03:16:27.550Z", "order": 302 }, "geometry": { "type": "Point", "coordinates": [ 136.543, -2.174 ] } },
{ "type": "Feature", "properties": { "place": "New Britain region, Papua New Guinea", "magnitudo": 7.3, "depth": 35.0, "tsunami": 0, "year": 2010, "date": "2010-07-18T13:34:59.360Z", "order": 303 }, "geometry": { "type": "Point", "coordinates": [ 150.59, -5.931 ] } },
{ "type": "Feature", "properties": { "place": "68 km W of Gadung, Philippines", "magnitudo": 7.3, "depth": 607.1, "tsunami": 0, "year": 2010, "date": "2010-07-23T22:08:11.250Z", "order": 304 }, "geometry": { "type": "Point", "coordinates": [ 123.409, 6.718 ] } },
{ "type": "Feature", "properties": { "place": "61 km W of Bantogon, Philippines", "magnitudo": 7.6, "depth": 578.0, "tsunami": 0, "year": 2010, "date": "2010-07-23T22:51:11.840Z", "order": 305 }, "geometry": { "type": "Point", "coordinates": [ 123.48, 6.497 ] } },
{ "type": "Feature", "properties": { "place": "72 km S of Panubigan, Philippines", "magnitudo": 7.5, "depth": 640.6, "tsunami": 0, "year": 2010, "date": "2010-07-23T23:15:10.190Z", "order": 306 }, "geometry": { "type": "Point", "coordinates": [ 123.259, 6.776 ] } },
{ "type": "Feature", "properties": { "place": "72 km ESE of Kimbe, Papua New Guinea", "magnitudo": 7.0, "depth": 44.0, "tsunami": 0, "year": 2010, "date": "2010-08-04T22:01:43.620Z", "order": 307 }, "geometry": { "type": "Point", "coordinates": [ 150.765, -5.746 ] } },
{ "type": "Feature", "properties": { "place": "33 km NW of Port-Vila, Vanuatu", "magnitudo": 7.3, "depth": 25.0, "tsunami": 0, "year": 2010, "date": "2010-08-10T05:23:44.980Z", "order": 308 }, "geometry": { "type": "Point", "coordinates": [ 168.069, -17.541 ] } },
{ "type": "Feature", "properties": { "place": "Ecuador", "magnitudo": 7.1, "depth": 206.7, "tsunami": 0, "year": 2010, "date": "2010-08-12T11:54:15.580Z", "order": 309 }, "geometry": { "type": "Point", "coordinates": [ -77.306, -1.266 ] } },
{ "type": "Feature", "properties": { "place": "19 km NE of Methven, New Zealand", "magnitudo": 7.0, "depth": 12.0, "tsunami": 0, "year": 2010, "date": "2010-09-03T16:35:47.770Z", "order": 310 }, "geometry": { "type": "Point", "coordinates": [ 171.83, -43.522 ] } },
{ "type": "Feature", "properties": { "place": "Near the south coast of Papua, Indonesia", "magnitudo": 7.0, "depth": 26.0, "tsunami": 0, "year": 2010, "date": "2010-09-29T17:11:25.940Z", "order": 311 }, "geometry": { "type": "Point", "coordinates": [ 133.76, -4.963 ] } },
{ "type": "Feature", "properties": { "place": "215 km SW of Sungai Penuh, Indonesia", "magnitudo": 7.8, "depth": 20.1, "tsunami": 0, "year": 2010, "date": "2010-10-25T14:42:22.460Z", "order": 312 }, "geometry": { "type": "Point", "coordinates": [ 100.082, -3.487 ] } },
{ "type": "Feature", "properties": { "place": "Bonin Islands, Japan region", "magnitudo": 7.4, "depth": 14.0, "tsunami": 0, "year": 2010, "date": "2010-12-21T17:19:40.660Z", "order": 313 }, "geometry": { "type": "Point", "coordinates": [ 143.698, 26.901 ] } },
{ "type": "Feature", "properties": { "place": "141 km W of Isangel, Vanuatu", "magnitudo": 7.3, "depth": 16.0, "tsunami": 0, "year": 2010, "date": "2010-12-25T13:16:37Z", "order": 314 }, "geometry": { "type": "Point", "coordinates": [ 167.947, -19.702 ] } },
{ "type": "Feature", "properties": { "place": "26 km NNE of El Hoyo, Argentina", "magnitudo": 7.0, "depth": 576.8, "tsunami": 0, "year": 2011, "date": "2011-01-01T09:56:58.120Z", "order": 315 }, "geometry": { "type": "Point", "coordinates": [ -63.136, -26.803 ] } },
{ "type": "Feature", "properties": { "place": "42 km NNW of Carahue, Chile", "magnitudo": 7.2, "depth": 24.0, "tsunami": 0, "year": 2011, "date": "2011-01-02T20:20:17.780Z", "order": 316 }, "geometry": { "type": "Point", "coordinates": [ -73.326, -38.355 ] } },
{ "type": "Feature", "properties": { "place": "118 km NNE of Tadine, New Caledonia", "magnitudo": 7.0, "depth": 9.0, "tsunami": 0, "year": 2011, "date": "2011-01-13T16:16:41.540Z", "order": 317 }, "geometry": { "type": "Point", "coordinates": [ 168.471, -20.628 ] } },
{ "type": "Feature", "properties": { "place": "46 km WSW of Dalbandin, Pakistan", "magnitudo": 7.2, "depth": 68.0, "tsunami": 0, "year": 2011, "date": "2011-01-18T20:23:23.480Z", "order": 318 }, "geometry": { "type": "Point", "coordinates": [ 63.951, 28.777 ] } },
{ "type": "Feature", "properties": { "place": "120 km SE of ?funato, Japan", "magnitudo": 7.3, "depth": 32.0, "tsunami": 0, "year": 2011, "date": "2011-03-09T02:45:20.330Z", "order": 319 }, "geometry": { "type": "Point", "coordinates": [ 142.842, 38.435 ] } },
{ "type": "Feature", "properties": { "place": "2011 Great Tohoku Earthquake, Japan", "magnitudo": 9.1, "depth": 29.0, "tsunami": 0, "year": 2011, "date": "2011-03-11T05:46:24.120Z", "order": 320 }, "geometry": { "type": "Point", "coordinates": [ 142.373, 38.297 ] } },
{ "type": "Feature", "properties": { "place": "47 km E of ?arai, Japan", "magnitudo": 7.9, "depth": 42.6, "tsunami": 0, "year": 2011, "date": "2011-03-11T06:15:40.280Z", "order": 321 }, "geometry": { "type": "Point", "coordinates": [ 141.111, 36.281 ] } },
{ "type": "Feature", "properties": { "place": "272 km ESE of Kamaishi, Japan", "magnitudo": 7.7, "depth": 18.6, "tsunami": 0, "year": 2011, "date": "2011-03-11T06:25:50.300Z", "order": 322 }, "geometry": { "type": "Point", "coordinates": [ 144.59, 38.058 ] } },
{ "type": "Feature", "properties": { "place": "29 km ESE of Ishinomaki, Japan", "magnitudo": 7.1, "depth": 42.0, "tsunami": 0, "year": 2011, "date": "2011-04-07T14:32:43.290Z", "order": 323 }, "geometry": { "type": "Point", "coordinates": [ 141.588, 38.276 ] } },
{ "type": "Feature", "properties": { "place": "Fox Islands, Aleutian Islands, Alaska", "magnitudo": 7.3, "depth": 52.0, "tsunami": 0, "year": 2011, "date": "2011-06-24T03:09:39.470Z", "order": 324 }, "geometry": { "type": "Point", "coordinates": [ -171.836, 52.05 ] } },
{ "type": "Feature", "properties": { "place": "Kermadec Islands region", "magnitudo": 7.6, "depth": 17.0, "tsunami": 0, "year": 2011, "date": "2011-07-06T19:03:18.260Z", "order": 325 }, "geometry": { "type": "Point", "coordinates": [ -176.34, -29.539 ] } },
{ "type": "Feature", "properties": { "place": "177 km ESE of Ishinomaki, Japan", "magnitudo": 7.0, "depth": 23.0, "tsunami": 0, "year": 2011, "date": "2011-07-10T00:57:10.800Z", "order": 326 }, "geometry": { "type": "Point", "coordinates": [ 143.264, 38.034 ] } },
{ "type": "Feature", "properties": { "place": "71 km SSW of Port-Vila, Vanuatu", "magnitudo": 7.2, "depth": 32.0, "tsunami": 0, "year": 2011, "date": "2011-08-20T16:55:02.810Z", "order": 327 }, "geometry": { "type": "Point", "coordinates": [ 168.143, -18.365 ] } },
{ "type": "Feature", "properties": { "place": "64 km S of Port-Vila, Vanuatu", "magnitudo": 7.1, "depth": 28.0, "tsunami": 0, "year": 2011, "date": "2011-08-20T18:19:23.550Z", "order": 328 }, "geometry": { "type": "Point", "coordinates": [ 168.218, -18.311 ] } },
{ "type": "Feature", "properties": { "place": "64 km ESE of Contamana, Peru", "magnitudo": 7.0, "depth": 147.0, "tsunami": 0, "year": 2011, "date": "2011-08-24T17:46:11.650Z", "order": 329 }, "geometry": { "type": "Point", "coordinates": [ -74.525, -7.641 ] } },
{ "type": "Feature", "properties": { "place": "133 km SSE of Isangel, Vanuatu", "magnitudo": 7.0, "depth": 185.1, "tsunami": 0, "year": 2011, "date": "2011-09-03T22:55:40.920Z", "order": 330 }, "geometry": { "type": "Point", "coordinates": [ 169.716, -20.671 ] } },
{ "type": "Feature", "properties": { "place": "Fiji region", "magnitudo": 7.3, "depth": 644.6, "tsunami": 0, "year": 2011, "date": "2011-09-15T19:31:04.080Z", "order": 331 }, "geometry": { "type": "Point", "coordinates": [ -179.528, -21.611 ] } },
{ "type": "Feature", "properties": { "place": "Kermadec Islands region", "magnitudo": 7.4, "depth": 33.0, "tsunami": 0, "year": 2011, "date": "2011-10-21T17:57:16.100Z", "order": 332 }, "geometry": { "type": "Point", "coordinates": [ -176.238, -28.993 ] } },
{ "type": "Feature", "properties": { "place": "27 km NNE of Van, Turkey", "magnitudo": 7.1, "depth": 18.0, "tsunami": 0, "year": 2011, "date": "2011-10-23T10:41:23.250Z", "order": 333 }, "geometry": { "type": "Point", "coordinates": [ 43.508, 38.721 ] } },
{ "type": "Feature", "properties": { "place": "25 km SSE of Wau, Papua New Guinea", "magnitudo": 7.1, "depth": 135.0, "tsunami": 0, "year": 2011, "date": "2011-12-14T05:04:58.630Z", "order": 334 }, "geometry": { "type": "Point", "coordinates": [ 146.809, -7.551 ] } },
{ "type": "Feature", "properties": { "place": "off the west coast of northern Sumatra", "magnitudo": 7.2, "depth": 19.0, "tsunami": 0, "year": 2012, "date": "2012-01-10T18:36:59.080Z", "order": 335 }, "geometry": { "type": "Point", "coordinates": [ 93.21, 2.433 ] } },
{ "type": "Feature", "properties": { "place": "125 km W of Port-Vila, Vanuatu", "magnitudo": 7.1, "depth": 23.0, "tsunami": 0, "year": 2012, "date": "2012-02-02T13:34:40.650Z", "order": 336 }, "geometry": { "type": "Point", "coordinates": [ 167.133, -17.827 ] } },
{ "type": "Feature", "properties": { "place": "6 km E of Santiago Llano Grande, Mexico", "magnitudo": 7.4, "depth": 20.0, "tsunami": 0, "year": 2012, "date": "2012-03-20T18:02:47.440Z", "order": 337 }, "geometry": { "type": "Point", "coordinates": [ -98.231, 16.493 ] } },
{ "type": "Feature", "properties": { "place": "23 km NE of Constitución, Chile", "magnitudo": 7.1, "depth": 40.7, "tsunami": 0, "year": 2012, "date": "2012-03-25T22:37:06Z", "order": 338 }, "geometry": { "type": "Point", "coordinates": [ -72.217, -35.2 ] } },
{ "type": "Feature", "properties": { "place": "off the west coast of northern Sumatra", "magnitudo": 8.6, "depth": 20.0, "tsunami": 0, "year": 2012, "date": "2012-04-11T08:38:36.720Z", "order": 339 }, "geometry": { "type": "Point", "coordinates": [ 93.063, 2.327 ] } },
{ "type": "Feature", "properties": { "place": "off the west coast of northern Sumatra", "magnitudo": 8.2, "depth": 25.1, "tsunami": 0, "year": 2012, "date": "2012-04-11T10:43:10.850Z", "order": 340 }, "geometry": { "type": "Point", "coordinates": [ 92.463, 0.802 ] } },
{ "type": "Feature", "properties": { "place": "69 km ENE of San Luis, Mexico", "magnitudo": 7.0, "depth": 13.0, "tsunami": 0, "year": 2012, "date": "2012-04-12T07:15:48.500Z", "order": 341 }, "geometry": { "type": "Point", "coordinates": [ -113.104, 28.696 ] } },
{ "type": "Feature", "properties": { "place": "156 km ENE of Poronaysk, Russia", "magnitudo": 7.7, "depth": 583.2, "tsunami": 0, "year": 2012, "date": "2012-08-14T02:59:38.460Z", "order": 342 }, "geometry": { "type": "Point", "coordinates": [ 145.064, 49.8 ] } },
{ "type": "Feature", "properties": { "place": "126 km S of Puerto El Triunfo, El Salvador", "magnitudo": 7.3, "depth": 28.0, "tsunami": 0, "year": 2012, "date": "2012-08-27T04:37:19.430Z", "order": 343 }, "geometry": { "type": "Point", "coordinates": [ -88.59, 12.139 ] } },
{ "type": "Feature", "properties": { "place": "11 km ENE of Hojancha, Costa Rica", "magnitudo": 7.6, "depth": 35.0, "tsunami": 0, "year": 2012, "date": "2012-09-05T14:42:07.800Z", "order": 344 }, "geometry": { "type": "Point", "coordinates": [ -85.315, 10.085 ] } },
{ "type": "Feature", "properties": { "place": "11 km WNW of San Agustín, Colombia", "magnitudo": 7.3, "depth": 170.0, "tsunami": 0, "year": 2012, "date": "2012-09-30T16:31:35.970Z", "order": 345 }, "geometry": { "type": "Point", "coordinates": [ -76.362, 1.929 ] } },
{ "type": "Feature", "properties": { "place": "206 km SW of Prince Rupert, Canada", "magnitudo": 7.8, "depth": 14.0, "tsunami": 0, "year": 2012, "date": "2012-10-28T03:04:08.820Z", "order": 346 }, "geometry": { "type": "Point", "coordinates": [ -132.101, 52.788 ] } },
{ "type": "Feature", "properties": { "place": "33 km S of Champerico, Guatemala", "magnitudo": 7.4, "depth": 24.0, "tsunami": 0, "year": 2012, "date": "2012-11-07T16:35:46.930Z", "order": 347 }, "geometry": { "type": "Point", "coordinates": [ -91.895, 13.988 ] } },
{ "type": "Feature", "properties": { "place": "234 km SE of ?funato, Japan", "magnitudo": 7.3, "depth": 31.0, "tsunami": 0, "year": 2012, "date": "2012-12-07T08:18:23.130Z", "order": 348 }, "geometry": { "type": "Point", "coordinates": [ 143.949, 37.89 ] } },
{ "type": "Feature", "properties": { "place": "Banda Sea", "magnitudo": 7.1, "depth": 155.0, "tsunami": 0, "year": 2012, "date": "2012-12-10T16:53:08.770Z", "order": 349 }, "geometry": { "type": "Point", "coordinates": [ 129.825, -6.533 ] } },
{ "type": "Feature", "properties": { "place": "110 km SW of Edna Bay, Alaska", "magnitudo": 7.5, "depth": 8.7, "tsunami": 0, "year": 2013, "date": "2013-01-05T08:58:14.957Z", "order": 350 }, "geometry": { "type": "Point", "coordinates": [ -134.8591, 55.228 ] } },
{ "type": "Feature", "properties": { "place": "75 km W of Lata, Solomon Islands", "magnitudo": 8.0, "depth": 24.0, "tsunami": 1, "year": 2013, "date": "2013-02-06T01:12:25.830Z", "order": 351 }, "geometry": { "type": "Point", "coordinates": [ 165.114, -10.799 ] } },
{ "type": "Feature", "properties": { "place": "112 km WSW of Lata, Solomon Islands", "magnitudo": 7.1, "depth": 10.0, "tsunami": 0, "year": 2013, "date": "2013-02-06T01:23:19.760Z", "order": 352 }, "geometry": { "type": "Point", "coordinates": [ 164.882, -11.183 ] } },
{ "type": "Feature", "properties": { "place": "33 km NW of Lata, Solomon Islands", "magnitudo": 7.0, "depth": 8.8, "tsunami": 0, "year": 2013, "date": "2013-02-06T01:54:14.610Z", "order": 353 }, "geometry": { "type": "Point", "coordinates": [ 165.588, -10.499 ] } },
{ "type": "Feature", "properties": { "place": "32 km SE of Lata, Solomon Islands", "magnitudo": 7.1, "depth": 21.0, "tsunami": 1, "year": 2013, "date": "2013-02-08T15:26:38.470Z", "order": 354 }, "geometry": { "type": "Point", "coordinates": [ 166.018, -10.928 ] } },
{ "type": "Feature", "properties": { "place": "260 km WSW of Abepura, Indonesia", "magnitudo": 7.0, "depth": 66.0, "tsunami": 1, "year": 2013, "date": "2013-04-06T04:42:35.860Z", "order": 355 }, "geometry": { "type": "Point", "coordinates": [ 138.476, -3.517 ] } },
{ "type": "Feature", "properties": { "place": "79 km ESE of Kh?sh, Iran", "magnitudo": 7.7, "depth": 80.0, "tsunami": 0, "year": 2013, "date": "2013-04-16T10:44:20.180Z", "order": 356 }, "geometry": { "type": "Point", "coordinates": [ 61.996, 28.033 ] } },
{ "type": "Feature", "properties": { "place": "252 km ENE of Kuril’sk, Russia", "magnitudo": 7.2, "depth": 110.0, "tsunami": 1, "year": 2013, "date": "2013-04-19T03:05:52.650Z", "order": 357 }, "geometry": { "type": "Point", "coordinates": [ 150.788, 46.221 ] } },
{ "type": "Feature", "properties": { "place": "292 km SW of Vaini, Tonga", "magnitudo": 7.4, "depth": 173.7, "tsunami": 1, "year": 2013, "date": "2013-05-23T17:19:04.750Z", "order": 358 }, "geometry": { "type": "Point", "coordinates": [ -177.232, -23.009 ] } },
{ "type": "Feature", "properties": { "place": "Sea of Okhotsk", "magnitudo": 8.3, "depth": 598.1, "tsunami": 1, "year": 2013, "date": "2013-05-24T05:44:48.980Z", "order": 359 }, "geometry": { "type": "Point", "coordinates": [ 153.221, 54.892 ] } },
{ "type": "Feature", "properties": { "place": "190 km ENE of Kokopo, Papua New Guinea", "magnitudo": 7.3, "depth": 385.5, "tsunami": 1, "year": 2013, "date": "2013-07-07T18:35:30.740Z", "order": 360 }, "geometry": { "type": "Point", "coordinates": [ 153.927, -3.917 ] } },
{ "type": "Feature", "properties": { "place": "South Sandwich Islands region", "magnitudo": 7.3, "depth": 11.0, "tsunami": 1, "year": 2013, "date": "2013-07-15T14:03:39.880Z", "order": 361 }, "geometry": { "type": "Point", "coordinates": [ -25.07, -60.857 ] } },
{ "type": "Feature", "properties": { "place": "101 km SW of Atka, Alaska", "magnitudo": 7.0, "depth": 29.0, "tsunami": 0, "year": 2013, "date": "2013-08-30T16:25:02.300Z", "order": 362 }, "geometry": { "type": "Point", "coordinates": [ -175.2297, 51.537 ] } },
{ "type": "Feature", "properties": { "place": "113 km NW of Bela, Pakistan", "magnitudo": 7.7, "depth": 15.0, "tsunami": 0, "year": 2013, "date": "2013-09-24T11:29:47.970Z", "order": 363 }, "geometry": { "type": "Point", "coordinates": [ 65.5009, 26.951 ] } },
{ "type": "Feature", "properties": { "place": "16 km WSW of Atiquipa, Peru", "magnitudo": 7.1, "depth": 40.0, "tsunami": 1, "year": 2013, "date": "2013-09-25T16:42:43.170Z", "order": 364 }, "geometry": { "type": "Point", "coordinates": [ -74.5112, -15.8385 ] } },
{ "type": "Feature", "properties": { "place": "4 km SE of Sagbayan, Philippines", "magnitudo": 7.1, "depth": 19.04, "tsunami": 1, "year": 2013, "date": "2013-10-15T00:12:32.050Z", "order": 365 }, "geometry": { "type": "Point", "coordinates": [ 124.1167, 9.8796 ] } },
{ "type": "Feature", "properties": { "place": "off the east coast of Honshu, Japan", "magnitudo": 7.1, "depth": 35.0, "tsunami": 1, "year": 2013, "date": "2013-10-25T17:10:19.710Z", "order": 366 }, "geometry": { "type": "Point", "coordinates": [ 144.6611, 37.1557 ] } },
{ "type": "Feature", "properties": { "place": "Scotia Sea", "magnitudo": 7.7, "depth": 10.0, "tsunami": 1, "year": 2013, "date": "2013-11-17T09:04:55.530Z", "order": 367 }, "geometry": { "type": "Point", "coordinates": [ -46.4011, -60.2738 ] } },
{ "type": "Feature", "properties": { "place": "Falkland Islands region", "magnitudo": 7.0, "depth": 11.78, "tsunami": 0, "year": 2013, "date": "2013-11-25T06:27:33.300Z", "order": 368 }, "geometry": { "type": "Point", "coordinates": [ -55.0033, -53.9451 ] } },
{ "type": "Feature", "properties": { "place": "93 km NW of Iquique, Chile", "magnitudo": 8.2, "depth": 25.0, "tsunami": 1, "year": 2014, "date": "2014-04-01T23:46:47.260Z", "order": 369 }, "geometry": { "type": "Point", "coordinates": [ -70.7691, -19.6097 ] } },
{ "type": "Feature", "properties": { "place": "53 km SW of Iquique, Chile", "magnitudo": 7.7, "depth": 22.4, "tsunami": 1, "year": 2014, "date": "2014-04-03T02:43:13.110Z", "order": 370 }, "geometry": { "type": "Point", "coordinates": [ -70.4931, -20.5709 ] } },
{ "type": "Feature", "properties": { "place": "56 km WSW of Panguna, Papua New Guinea", "magnitudo": 7.1, "depth": 60.53, "tsunami": 1, "year": 2014, "date": "2014-04-11T07:07:23.130Z", "order": 371 }, "geometry": { "type": "Point", "coordinates": [ 155.0485, -6.5858 ] } },
{ "type": "Feature", "properties": { "place": "93 km SSE of Kirakira, Solomon Islands", "magnitudo": 7.6, "depth": 22.56, "tsunami": 1, "year": 2014, "date": "2014-04-12T20:14:39.300Z", "order": 372 }, "geometry": { "type": "Point", "coordinates": [ 162.1481, -11.2701 ] } },
{ "type": "Feature", "properties": { "place": "112 km S of Kirakira, Solomon Islands", "magnitudo": 7.4, "depth": 39.0, "tsunami": 1, "year": 2014, "date": "2014-04-13T12:36:19.230Z", "order": 373 }, "geometry": { "type": "Point", "coordinates": [ 162.0511, -11.4633 ] } },
{ "type": "Feature", "properties": { "place": "9 km ENE of Coyuquilla Norte, Mexico", "magnitudo": 7.2, "depth": 24.0, "tsunami": 1, "year": 2014, "date": "2014-04-18T14:27:24.920Z", "order": 374 }, "geometry": { "type": "Point", "coordinates": [ -100.9723, 17.397 ] } },
{ "type": "Feature", "properties": { "place": "70 km SW of Panguna, Papua New Guinea", "magnitudo": 7.5, "depth": 43.37, "tsunami": 1, "year": 2014, "date": "2014-04-19T13:28:00.810Z", "order": 375 }, "geometry": { "type": "Point", "coordinates": [ 155.0241, -6.7547 ] } },
{ "type": "Feature", "properties": { "place": "Rat Islands, Aleutian Islands, Alaska", "magnitudo": 7.9, "depth": 109.0, "tsunami": 1, "year": 2014, "date": "2014-06-23T20:53:09.700Z", "order": 376 }, "geometry": { "type": "Point", "coordinates": [ 178.7352, 51.8486 ] } },
{ "type": "Feature", "properties": { "place": "southern East Pacific Rise", "magnitudo": 7.0, "depth": 16.54, "tsunami": 1, "year": 2014, "date": "2014-10-09T02:14:31.440Z", "order": 377 }, "geometry": { "type": "Point", "coordinates": [ -110.8112, -32.1082 ] } },